id,state_id,"name","slug",population,latitude,longitude,"created_at","updated_at","deleted_at"
1,1,"Moody","moody",10427,33.601525,-86.489546,"2016-04-12 16:46:49","2017-06-20 09:38:12",NULL
2,1,"Adamsville","adamsville",7942,33.604745,-87.042439,"2016-04-12 16:46:49","2017-06-20 09:38:12",NULL
3,1,"Adger","adger",3121,33.429346,-87.202099,"2016-04-12 16:46:49","2017-06-20 09:38:12",NULL
4,1,"Alabaster","alabaster",33397,33.234411,-86.805951,"2016-04-12 16:46:49","2017-06-20 17:36:51",NULL
5,1,"Alexander City","alexander-city",20816,32.942322,-85.930005,"2016-04-12 16:46:49","2017-06-20 09:38:12",NULL
6,1,"Allgood","allgood",124,33.913640,-86.509090,"2016-04-12 16:46:49","2017-06-20 09:38:12",NULL
7,1,"Alpine","alpine",4546,33.405114,-86.276800,"2016-04-12 16:46:49","2017-06-20 09:38:12",NULL
8,1,"Alton","alton",0,33.579324,-86.637693,"2016-04-12 16:46:50","2016-08-30 10:17:31",NULL
9,1,"Arab","arab",16778,34.348354,-86.519865,"2016-04-12 16:46:50","2017-06-20 09:38:12",NULL
10,1,"Baileyton","baileyton",2117,34.296538,-86.651033,"2016-04-12 16:46:50","2017-06-20 09:38:12",NULL
11,1,"Bessemer","bessemer",71463,33.386036,-86.979704,"2016-04-12 16:46:50","2017-06-20 09:38:12",NULL
12,1,"Blountsville","blountsville",7933,34.082972,-86.560261,"2016-04-12 16:46:50","2017-06-20 09:38:12",NULL
13,1,"Bon Air","bon-air",66,33.263214,-86.334507,"2016-04-12 16:46:50","2017-06-20 09:38:12",NULL
14,1,"Bremen","bremen",3403,33.961902,-87.042439,"2016-04-12 16:46:50","2017-06-20 09:38:12",NULL
15,1,"Brent","brent",5541,32.891805,-87.281727,"2016-04-12 16:46:50","2017-06-20 09:38:12",NULL
16,1,"Brierfield","brierfield",1581,33.065526,-87.002441,"2016-04-12 16:46:50","2017-06-20 09:38:12",NULL
17,1,"Brookside","brookside",297,33.638425,-86.918899,"2016-04-12 16:46:50","2017-06-20 09:38:12",NULL
18,1,"Dora","dora",7944,33.702081,-87.066220,"2016-04-12 16:46:50","2017-06-20 09:38:12",NULL
19,1,"Calera","calera",14965,33.103449,-86.721518,"2016-04-12 16:46:50","2017-06-20 09:38:12",NULL
20,1,"Centreville","centreville",5831,32.910322,-87.102375,"2016-04-12 16:46:50","2017-06-20 09:38:12",NULL
21,1,"Chelsea","chelsea",9234,33.315413,-86.671182,"2016-04-12 16:46:50","2017-06-20 09:38:12",NULL
22,1,"Childersburg","childersburg",7713,33.262093,-86.368087,"2016-04-12 16:46:50","2017-06-20 09:38:12",NULL
23,1,"Clanton","clanton",19978,32.841649,-86.610660,"2016-04-12 16:46:50","2017-06-20 09:38:12",NULL
24,1,"Clay","clay",0,33.699410,-86.605510,"2016-04-12 16:46:50","2017-06-20 09:38:12",NULL
25,1,"Cleveland","cleveland",3996,33.961394,-86.590537,"2016-04-12 16:46:50","2017-06-20 09:38:12",NULL
26,1,"Columbiana","columbiana",8787,33.190084,-86.600625,"2016-04-12 16:46:50","2017-06-20 09:38:12",NULL
27,1,"Cook Springs","cook-springs",277,33.589328,-86.359508,"2016-04-12 16:46:50","2017-06-20 09:38:12",NULL
28,1,"Crane Hill","crane-hill",2617,34.051927,-87.082405,"2016-04-12 16:46:50","2017-06-20 09:38:12",NULL
29,1,"Cullman","cullman",41993,34.167681,-86.810868,"2016-04-12 16:46:50","2017-06-20 09:38:12",NULL
30,1,"Docena","docena",414,33.558703,-86.931110,"2016-04-12 16:46:50","2017-06-20 09:38:12",NULL
31,1,"Empire","empire",3866,33.827167,-87.002441,"2016-04-12 16:46:50","2017-06-20 09:38:12",NULL
32,1,"Fairfield","fairfield",11458,33.473022,-86.917333,"2016-04-12 16:46:50","2017-06-20 09:38:12",NULL
33,1,"Fultondale","fultondale",7232,33.610737,-86.832074,"2016-04-12 16:46:50","2017-06-20 09:38:12",NULL
34,1,"Garden City","garden-city",265,34.013331,-86.748866,"2016-04-12 16:46:50","2017-06-20 09:38:12",NULL
35,1,"Gardendale","gardendale",15661,33.700137,-86.832074,"2016-04-12 16:46:50","2017-06-20 09:38:12",NULL
36,1,"Goodwater","goodwater",5193,33.128424,-86.032563,"2016-04-12 16:46:50","2017-06-20 09:38:12",NULL
37,1,"Graysville","graysville",2382,33.658952,-86.972420,"2016-04-12 16:46:50","2017-06-20 09:38:12",NULL
38,1,"Green Pond","green-pond",93,33.226822,-87.127637,"2016-04-12 16:46:50","2017-06-20 09:38:12",NULL
39,1,"Hanceville","hanceville",13142,34.066707,-86.781852,"2016-04-12 16:46:50","2017-06-20 09:38:12",NULL
40,1,"Harpersville","harpersville",2082,33.320209,-86.438974,"2016-04-12 16:46:50","2017-06-20 09:38:12",NULL
41,1,"Hayden","hayden",8810,33.953802,-86.721518,"2016-04-12 16:46:50","2017-06-20 09:38:12",NULL
42,1,"Helena","helena",15881,33.254305,-86.912322,"2016-04-12 16:46:50","2017-06-20 09:38:12",NULL
43,1,"Hollins","hollins",7,33.117762,-86.144356,"2016-04-12 16:46:50","2017-06-20 09:38:12",NULL
44,1,"Holly Pond","holly-pond",3268,34.206068,-86.590537,"2016-04-12 16:46:50","2017-06-20 09:38:12",NULL
45,1,"Jemison","jemison",8933,32.969542,-86.761749,"2016-04-12 16:46:50","2017-06-20 09:38:12",NULL
46,1,"Joppa","joppa",2115,34.317064,-86.590537,"2016-04-12 16:46:50","2017-06-20 09:38:12",NULL
47,1,"Kellyton","kellyton",2238,32.949867,-86.073350,"2016-04-12 16:46:50","2017-06-20 09:38:12",NULL
48,1,"Kimberly","kimberly",2719,33.782969,-86.796924,"2016-04-12 16:46:50","2017-06-20 09:38:12",NULL
49,1,"Leeds","leeds",14212,33.514308,-86.570355,"2016-04-12 16:46:50","2017-06-20 09:38:12",NULL
50,1,"Lincoln","lincoln",7815,33.623865,-86.114105,"2016-04-12 16:46:50","2017-06-20 09:38:12",NULL
51,1,"Locust Fork","locust-fork",1748,33.895657,-86.630876,"2016-04-12 16:46:51","2017-06-20 09:38:12",NULL
52,1,"Logan","logan",1375,34.130033,-87.092391,"2016-04-12 16:46:51","2017-06-20 09:38:12",NULL
53,1,"McCalla","mccalla",16140,33.292060,-87.082405,"2016-04-12 16:46:51","2017-06-20 09:38:12",NULL
54,1,"Margaret","margaret",801,33.689194,-86.478172,"2016-04-12 16:46:51","2017-06-20 09:38:12",NULL
55,1,"Montevallo","montevallo",14118,33.107558,-86.882245,"2016-04-12 16:46:51","2017-06-20 09:38:12",NULL
56,1,"Morris","morris",4240,33.731823,-86.761749,"2016-04-12 16:46:51","2017-06-20 09:38:12",NULL
57,1,"Mount Olive","mount-olive",5367,33.679318,-86.892272,"2016-04-12 16:46:51","2017-06-20 09:38:12",NULL
58,1,"Mulga","mulga",3138,33.549053,-87.052434,"2016-04-12 16:46:51","2017-06-20 09:38:12",NULL
59,1,"Odenville","odenville",13842,33.678302,-86.438974,"2016-04-12 16:46:51","2017-06-20 09:38:12",NULL
60,1,"Oneonta","oneonta",15570,33.945981,-86.438974,"2016-04-12 16:46:51","2017-06-20 09:38:12",NULL
61,1,"Palmerdale","palmerdale",0,33.738948,-86.648681,"2016-04-12 16:46:51","2016-08-30 10:17:32",NULL
62,1,"Pelham","pelham",23020,33.295628,-86.771802,"2016-04-12 16:46:51","2017-06-20 09:38:12",NULL
63,1,"Pell City","pell-city",20653,33.586515,-86.357887,"2016-04-12 16:46:51","2017-06-20 09:38:12",NULL
64,1,"Pinson","pinson",21725,33.728608,-86.640955,"2016-04-12 16:46:51","2017-06-20 09:38:12",NULL
65,1,"Pleasant Grove","pleasant-grove",10099,33.496888,-86.977425,"2016-04-12 16:46:51","2017-06-20 09:38:12",NULL
66,1,"Quinton","quinton",3233,33.607540,-87.162234,"2016-04-12 16:46:51","2017-06-20 09:38:12",NULL
67,1,"Ragland","ragland",4159,33.759117,-86.154827,"2016-04-12 16:46:51","2017-06-20 09:38:13",NULL
68,1,"Remlap","remlap",3907,33.816783,-86.600625,"2016-04-12 16:46:51","2017-06-20 09:38:13",NULL
69,1,"Riverside","riverside",1812,33.620645,-86.190432,"2016-04-12 16:46:51","2017-06-20 09:38:13",NULL
70,1,"Rockford","rockford",1796,32.889145,-86.297100,"2016-04-12 16:46:51","2017-06-20 09:38:13",NULL
71,1,"Saginaw","saginaw",0,33.207655,-86.782841,"2016-04-12 16:46:51","2016-08-30 10:17:32",NULL
72,1,"Sayre","sayre",150,33.706375,-86.969917,"2016-04-12 16:46:51","2017-06-20 09:38:13",NULL
73,1,"Shelby","shelby",3281,33.099119,-86.560261,"2016-04-12 16:46:51","2017-06-20 09:38:13",NULL
74,1,"Springville","springville",10948,33.790509,-86.459209,"2016-04-12 16:46:51","2017-06-20 09:38:13",NULL
75,1,"Sterrett","sterrett",5468,33.412146,-86.519865,"2016-04-12 16:46:51","2017-06-20 09:38:13",NULL
76,1,"Sumiton","sumiton",2702,33.755707,-87.047437,"2016-04-12 16:46:51","2017-06-20 09:38:13",NULL
77,1,"Sycamore","sycamore",630,33.256539,-86.205049,"2016-04-12 16:46:51","2017-06-20 09:38:13",NULL
78,1,"Sylacauga","sylacauga",26104,33.122317,-86.314924,"2016-04-12 16:46:51","2017-06-20 09:38:13",NULL
79,1,"Talladega","talladega",26822,33.384708,-86.118444,"2016-04-12 16:46:51","2017-06-20 09:38:13",NULL
80,1,"Thorsby","thorsby",3281,32.867424,-86.731579,"2016-04-12 16:46:51","2017-06-20 09:38:13",NULL
81,1,"Trafford","trafford",2986,33.852698,-86.691322,"2016-04-12 16:46:51","2017-06-20 09:38:13",NULL
82,1,"Trussville","trussville",25176,33.637036,-86.560261,"2016-04-12 16:46:51","2017-06-20 09:38:13",NULL
83,1,"Union Grove","union-grove",5041,34.437016,-86.519865,"2016-04-12 16:46:51","2017-06-20 09:38:13",NULL
84,1,"Vandiver","vandiver",921,33.489671,-86.489546,"2016-04-12 16:46:51","2017-06-20 09:38:13",NULL
85,1,"Vincent","vincent",3378,33.408693,-86.398479,"2016-04-12 16:46:51","2017-06-20 09:38:13",NULL
86,1,"Vinemont","vinemont",8958,34.272311,-87.002441,"2016-04-12 16:46:51","2017-06-20 09:38:13",NULL
87,1,"Warrior","warrior",13794,33.823180,-86.842113,"2016-04-12 16:46:51","2017-06-20 09:38:13",NULL
88,1,"Watson","watson",0,33.627161,-86.878934,"2016-04-12 16:46:51","2016-08-30 10:17:33",NULL
89,1,"Wattsville","wattsville",0,33.680991,-86.279574,"2016-04-12 16:46:51","2016-08-30 10:17:33",NULL
90,1,"Weogufka","weogufka",706,32.939110,-86.406391,"2016-04-12 16:46:51","2017-06-20 09:38:13",NULL
91,1,"West Blocton","west-blocton",5841,33.113310,-87.122336,"2016-04-12 16:46:51","2017-06-20 09:38:13",NULL
92,1,"Westover","westover",0,33.353297,-86.535692,"2016-04-12 16:46:51","2017-06-20 09:38:13",NULL
93,1,"Wilsonville","wilsonville",4931,33.277637,-86.519865,"2016-04-12 16:46:51","2017-06-20 09:38:13",NULL
94,1,"Wilton","wilton",32,33.074763,-86.884282,"2016-04-12 16:46:51","2017-06-20 09:38:13",NULL
95,1,"Woodstock","woodstock",2715,33.193098,-87.172204,"2016-04-12 16:46:51","2017-06-20 09:38:13",NULL
96,1,"Birmingham","birmingham",493806,33.504802,-86.799615,"2016-04-12 16:46:51","2017-06-20 09:38:13",NULL
97,1,"Tuscaloosa","tuscaloosa",112654,33.200241,-87.554061,"2016-04-12 16:46:52","2017-06-20 09:38:13",NULL
98,1,"Abernant","abernant",0,33.292149,-87.199029,"2016-04-12 16:46:53","2016-08-30 10:17:33",NULL
99,1,"Akron","akron",1060,32.856107,-87.756651,"2016-04-12 16:46:53","2017-06-20 09:38:13",NULL
100,1,"Aliceville","aliceville",4972,33.021057,-88.207160,"2016-04-12 16:46:53","2017-06-20 09:38:13",NULL
101,1,"Boligee","boligee",2009,32.771088,-88.070532,"2016-04-12 16:46:53","2017-06-20 09:38:13",NULL
102,1,"Brookwood","brookwood",3699,33.342293,-87.321491,"2016-04-12 16:46:53","2017-06-20 09:38:13",NULL
103,1,"Buhl","buhl",2234,33.205133,-87.766493,"2016-04-12 16:46:53","2017-06-20 09:38:13",NULL
104,1,"Carrollton","carrollton",3460,33.267534,-88.148657,"2016-04-12 16:46:53","2017-06-20 09:38:13",NULL
105,1,"Clinton","clinton",0,32.914809,-87.992972,"2016-04-12 16:46:53","2016-08-30 10:17:33",NULL
106,1,"Coaling","coaling",0,33.158525,-87.340429,"2016-04-12 16:46:53","2017-06-20 09:38:13",NULL
107,1,"Coker","coker",3880,33.271075,-87.687697,"2016-04-12 16:46:53","2017-06-20 09:38:13",NULL
108,1,"Cottondale","cottondale",11127,33.164362,-87.400917,"2016-04-12 16:46:53","2017-06-20 09:38:13",NULL
109,1,"Duncanville","duncanville",3759,33.030254,-87.440579,"2016-04-12 16:46:53","2017-06-20 09:38:13",NULL
110,1,"Echola","echola",82,33.298071,-87.783712,"2016-04-12 16:46:53","2017-06-20 09:38:13",NULL
111,1,"Elrod","elrod",594,33.362273,-87.766493,"2016-04-12 16:46:53","2017-06-20 09:38:13",NULL
112,1,"Emelle","emelle",872,32.819586,-88.304491,"2016-04-12 16:46:53","2017-06-20 09:38:13",NULL
113,1,"Epes","epes",834,32.716533,-88.197415,"2016-04-12 16:46:53","2017-06-20 09:38:13",NULL
114,1,"Ethelsville","ethelsville",1952,33.403310,-88.226643,"2016-04-12 16:46:53","2017-06-20 09:38:13",NULL
115,1,"Eutaw","eutaw",5061,32.927397,-87.972681,"2016-04-12 16:46:53","2017-06-20 09:38:13",NULL
116,1,"Fosters","fosters",1749,33.079875,-87.677838,"2016-04-12 16:46:53","2017-06-20 09:38:13",NULL
117,1,"Gainesville","gainesville",654,32.783972,-88.177918,"2016-04-12 16:46:53","2017-06-20 09:38:13",NULL
118,1,"Gordo","gordo",6075,33.285955,-87.894245,"2016-04-12 16:46:53","2017-06-20 09:38:13",NULL
119,1,"Kellerman","kellerman",0,33.340467,-87.304740,"2016-04-12 16:46:53","2016-08-30 10:17:33",NULL
120,1,"Knoxville","knoxville",221,33.049117,-87.845153,"2016-04-12 16:46:53","2017-06-20 09:38:13",NULL
121,1,"Livingston","livingston",5468,32.566244,-87.972681,"2016-04-12 16:46:53","2017-06-20 09:38:13",NULL
122,1,"McShan","mcshan",0,33.380000,-88.140000,"2016-04-12 16:46:53","2016-08-30 10:17:33",NULL
123,1,"Northport","northport",37522,33.312026,-87.580773,"2016-04-12 16:46:53","2017-06-20 09:38:13",NULL
124,1,"Moundville","moundville",6180,32.920424,-87.579129,"2016-04-12 16:46:53","2017-06-20 09:38:13",NULL
125,1,"Panola","panola",335,32.950636,-88.268373,"2016-04-12 16:46:53","2017-06-20 09:38:13",NULL
126,1,"Peterson","peterson",0,33.271470,-87.249700,"2016-04-12 16:46:53","2016-08-30 10:17:33",NULL
127,1,"Ralph","ralph",1343,33.082011,-87.796007,"2016-04-12 16:46:53","2017-06-20 09:38:13",NULL
128,1,"Reform","reform",3668,33.400991,-88.070532,"2016-04-12 16:46:53","2017-06-20 09:38:13",NULL
129,1,"Samantha","samantha",0,33.467713,-87.625971,"2016-04-12 16:46:53","2016-08-30 10:17:33",NULL
130,1,"Vance","vance",3857,33.250798,-87.241930,"2016-04-12 16:46:53","2017-06-20 09:38:13",NULL
131,1,"West Greene","west-greene",0,32.923648,-88.085185,"2016-04-12 16:46:53","2016-08-30 10:17:33",NULL
132,1,"Jasper","jasper",33088,33.863525,-87.269813,"2016-04-12 16:46:53","2017-06-20 09:38:13",NULL
133,1,"Addison","addison",2415,34.231682,-87.162234,"2016-04-12 16:46:53","2017-06-20 09:38:13",NULL
134,1,"Arley","arley",3597,34.076502,-87.182171,"2016-04-12 16:46:53","2017-06-20 09:38:13",NULL
135,1,"Bankston","bankston",1021,33.696695,-87.687697,"2016-04-12 16:46:54","2017-06-20 09:38:13",NULL
136,1,"Bear Creek","bear-creek",1137,34.232660,-87.746807,"2016-04-12 16:46:54","2017-06-20 09:38:13",NULL
137,1,"Beaverton","beaverton",673,33.937034,-88.031417,"2016-04-12 16:46:54","2017-06-20 09:38:13",NULL
138,1,"Belk","belk",100,33.643628,-87.932939,"2016-04-12 16:46:54","2017-06-20 09:38:13",NULL
139,1,"Berry","berry",3901,33.638732,-87.579129,"2016-04-12 16:46:54","2017-06-20 09:38:13",NULL
140,1,"Brilliant","brilliant",1558,34.066026,-87.756651,"2016-04-12 16:46:54","2017-06-20 09:38:13",NULL
141,1,"Carbon Hill","carbon-hill",4341,33.839400,-87.559361,"2016-04-12 16:46:54","2017-06-20 09:38:13",NULL
142,1,"Cordova","cordova",5605,33.753034,-87.172204,"2016-04-12 16:46:54","2017-06-20 09:38:13",NULL
143,1,"Delmar","delmar",0,34.170263,-87.605992,"2016-04-12 16:46:54","2016-08-30 10:17:33",NULL
144,1,"Detroit","detroit",1044,34.072529,-88.148657,"2016-04-12 16:46:54","2017-06-20 09:38:13",NULL
145,1,"Double Springs","double-springs",4680,34.147200,-87.361221,"2016-04-12 16:46:54","2017-06-20 09:38:13",NULL
146,1,"Eldridge","eldridge",1186,33.897266,-87.667977,"2016-04-12 16:46:54","2017-06-20 09:38:13",NULL
147,1,"Fayette","fayette",10177,33.643119,-87.815672,"2016-04-12 16:46:54","2017-06-20 09:38:13",NULL
148,1,"Glen Allen","glen-allen",57,33.901200,-87.729575,"2016-04-12 16:46:54","2017-06-20 09:38:13",NULL
149,1,"Goodsprings","goodsprings",0,33.666871,-87.232696,"2016-04-12 16:46:54","2016-08-30 10:17:33",NULL
150,1,"Guin","guin",4340,33.979688,-87.913867,"2016-04-12 16:46:54","2017-06-20 09:38:13",NULL
151,1,"Hackleburg","hackleburg",2361,34.245358,-87.835328,"2016-04-12 16:46:54","2017-06-20 09:38:13",NULL
152,1,"Haleyville","haleyville",13485,34.262802,-87.579129,"2016-04-12 16:46:54","2017-06-20 09:38:13",NULL
153,1,"Hamilton","hamilton",11145,34.181013,-87.972681,"2016-04-12 16:46:54","2017-06-20 09:38:13",NULL
154,1,"Hodges","hodges",895,34.327070,-87.926126,"2016-04-12 16:46:54","2017-06-20 09:38:13",NULL
155,1,"Houston","houston",1131,34.234379,-87.281727,"2016-04-12 16:46:54","2017-06-20 09:38:14",NULL
156,1,"Kansas","kansas",0,33.902654,-87.550093,"2016-04-12 16:46:54","2017-06-20 09:38:14",NULL
157,1,"Kennedy","kennedy",1507,33.578339,-87.953085,"2016-04-12 16:46:54","2017-06-20 09:38:14",NULL
158,1,"Lynn","lynn",1018,34.051346,-87.569246,"2016-04-12 16:46:54","2017-06-20 09:38:14",NULL
159,1,"Millport","millport",3217,33.581406,-88.148657,"2016-04-12 16:46:54","2017-06-20 09:38:14",NULL
160,1,"Natural Bridge","natural-bridge",38,34.089513,-87.600122,"2016-04-12 16:46:54","2017-06-20 09:38:14",NULL
161,1,"Nauvoo","nauvoo",5833,33.971605,-87.480207,"2016-04-12 16:46:54","2017-06-20 09:38:14",NULL
162,1,"Oakman","oakman",3136,33.656651,-87.361221,"2016-04-12 16:46:54","2017-06-20 09:38:14",NULL
163,1,"Parrish","parrish",3791,33.665895,-87.271781,"2016-04-12 16:46:54","2017-06-20 09:38:14",NULL
164,1,"Phil Campbell","phil-campbell",5778,34.332055,-87.717262,"2016-04-12 16:46:54","2017-06-20 09:38:14",NULL
165,1,"Red Bay","red-bay",4093,34.516120,-88.109612,"2016-04-12 16:46:54","2017-06-20 09:38:14",NULL
166,1,"Sipsey","sipsey",460,33.824270,-87.085525,"2016-04-12 16:46:54","2017-06-20 09:38:14",NULL
167,1,"Spruce Pine","spruce-pine",1418,34.422233,-87.796007,"2016-04-12 16:46:54","2017-06-20 09:38:14",NULL
168,1,"Sulligent","sulligent",4469,33.894240,-88.148657,"2016-04-12 16:46:54","2017-06-20 09:38:14",NULL
169,1,"Townley","townley",1025,33.803727,-87.450489,"2016-04-12 16:46:54","2017-06-20 09:38:14",NULL
170,1,"Vernon","vernon",4664,33.759106,-88.070532,"2016-04-12 16:46:54","2017-06-20 09:38:14",NULL
171,1,"Vina","vina",1931,34.338105,-88.070532,"2016-04-12 16:46:54","2017-06-20 09:38:14",NULL
172,1,"Winfield","winfield",7794,33.932355,-87.756651,"2016-04-12 16:46:54","2017-06-20 09:38:14",NULL
173,1,"Decatur","decatur",64979,34.598164,-86.981440,"2016-04-12 16:46:54","2017-06-20 09:38:14",NULL
174,1,"Anderson","anderson",2252,34.941525,-87.241930,"2016-04-12 16:46:54","2017-06-20 09:38:14",NULL
175,1,"Athens","athens",53253,34.804730,-87.010306,"2016-04-12 16:46:54","2017-06-20 09:38:14",NULL
176,1,"Belle Mina","belle-mina",68,34.656972,-86.879491,"2016-04-12 16:46:54","2017-06-20 09:38:14",NULL
177,1,"Cherokee","cherokee",4043,34.714354,-88.050979,"2016-04-12 16:46:54","2017-06-20 09:38:14",NULL
178,1,"Cloverdale","cloverdale",0,34.940329,-87.772360,"2016-04-12 16:46:54","2016-08-30 10:17:34",NULL
179,1,"Courtland","courtland",1870,34.634236,-87.321491,"2016-04-12 16:46:54","2017-06-20 09:38:14",NULL
180,1,"Danville","danville",5135,34.364871,-87.162234,"2016-04-12 16:46:55","2017-06-20 09:38:14",NULL
181,1,"Elkmont","elkmont",8868,34.935873,-87.002441,"2016-04-12 16:46:55","2017-06-20 09:38:14",NULL
182,1,"Eva","eva",2852,34.353901,-86.721518,"2016-04-12 16:46:55","2017-06-20 09:38:14",NULL
183,1,"Falkville","falkville",7388,34.358085,-86.882245,"2016-04-12 16:46:55","2017-06-20 09:38:14",NULL
184,1,"Florence","florence",63217,34.846498,-87.683589,"2016-04-12 16:46:55","2017-06-20 09:38:14",NULL
185,1,"Hartselle","hartselle",24267,34.447771,-86.922343,"2016-04-12 16:46:55","2017-06-20 09:38:14",NULL
186,1,"Hillsboro","hillsboro",2941,34.675784,-87.202099,"2016-04-12 16:46:55","2017-06-20 09:38:14",NULL
187,1,"Killen","killen",14060,34.880952,-87.500008,"2016-04-12 16:46:55","2017-06-20 09:38:14",NULL
188,1,"Leighton","leighton",4635,34.682636,-87.519801,"2016-04-12 16:46:55","2017-06-20 09:38:14",NULL
189,1,"Lester","lester",1030,34.971571,-87.112356,"2016-04-12 16:46:55","2017-06-20 09:38:14",NULL
190,1,"Lexington","lexington",3635,34.945017,-87.400917,"2016-04-12 16:46:55","2017-06-20 09:38:14",NULL
191,1,"Mooresville","mooresville",68,34.615482,-86.879737,"2016-04-12 16:46:55","2017-06-20 09:38:14",NULL
192,1,"Moulton","moulton",13971,34.435401,-87.341360,"2016-04-12 16:46:55","2017-06-20 09:38:14",NULL
193,1,"Mount Hope","mount-hope",1312,34.370984,-87.440579,"2016-04-12 16:46:55","2017-06-20 09:38:14",NULL
194,1,"Rogersville","rogersville",8190,34.855109,-87.321491,"2016-04-12 16:46:55","2017-06-20 09:38:14",NULL
195,1,"Russellville","russellville",19835,34.510113,-87.756498,"2016-04-12 16:46:55","2017-06-20 09:38:14",NULL
196,1,"Sheffield","sheffield",9042,34.757833,-87.692626,"2016-04-12 16:46:55","2017-06-20 09:38:14",NULL
197,1,"Muscle Shoals","muscle-shoals",16617,34.761524,-87.619623,"2016-04-12 16:46:55","2017-06-20 09:38:14",NULL
198,1,"Somerville","somerville",7676,34.442570,-86.721518,"2016-04-12 16:46:55","2017-06-20 09:38:14",NULL
199,1,"Tanner","tanner",2107,34.670068,-86.962409,"2016-04-12 16:46:55","2017-06-20 09:38:14",NULL
200,1,"Town Creek","town-creek",6445,34.680169,-87.400917,"2016-04-12 16:46:55","2017-06-20 09:38:14",NULL
201,1,"Trinity","trinity",8199,34.574648,-87.132314,"2016-04-12 16:46:55","2017-06-20 09:38:14",NULL
202,1,"Tuscumbia","tuscumbia",18475,34.642982,-87.756651,"2016-04-12 16:46:55","2017-06-20 09:38:14",NULL
203,1,"Waterloo","waterloo",1921,34.956824,-88.031417,"2016-04-12 16:46:55","2017-06-20 09:38:14",NULL
204,1,"Ardmore","ardmore",5146,34.963557,-86.791901,"2016-04-12 16:46:55","2017-06-20 09:38:14",NULL
205,1,"Bridgeport","bridgeport",3482,34.942544,-85.746155,"2016-04-12 16:46:55","2017-06-20 09:38:14",NULL
206,1,"Brownsboro","brownsboro",2933,34.734141,-86.469324,"2016-04-12 16:46:55","2017-06-20 09:38:14",NULL
207,1,"Capshaw","capshaw",0,34.762832,-86.786291,"2016-04-12 16:46:55","2016-08-30 10:17:34",NULL
208,1,"Dutton","dutton",2570,34.605922,-85.899783,"2016-04-12 16:46:55","2017-06-20 09:38:14",NULL
209,1,"Estillfork","estillfork",288,34.957406,-86.195517,"2016-04-12 16:46:55","2017-06-20 09:38:14",NULL
210,1,"Fackler","fackler",856,34.830043,-86.001952,"2016-04-12 16:46:55","2017-06-20 09:38:14",NULL
211,1,"Grant","grant",5901,34.486165,-86.307247,"2016-04-12 16:46:55","2017-06-20 09:38:14",NULL
212,1,"Gurley","gurley",6276,34.654767,-86.398479,"2016-04-12 16:46:55","2017-06-20 09:38:14",NULL
213,1,"Harvest","harvest",20575,34.841544,-86.761749,"2016-04-12 16:46:55","2017-06-20 09:38:14",NULL
214,1,"Hazel Green","hazel-green",12783,34.968250,-86.560261,"2016-04-12 16:46:55","2017-06-20 09:38:14",NULL
215,1,"Hollytree","hollytree",265,34.816377,-86.266646,"2016-04-12 16:46:55","2017-06-20 09:38:14",NULL
216,1,"Hollywood","hollywood",2047,34.762536,-85.961108,"2016-04-12 16:46:55","2017-06-20 09:38:14",NULL
217,1,"Laceys Spring","laceys-spring",5362,34.534050,-86.601869,"2016-04-12 16:46:55","2017-06-20 09:38:14",NULL
218,1,"Langston","langston",586,34.524780,-86.124288,"2016-04-12 16:46:55","2017-06-20 09:38:14",NULL
219,1,"Madison","madison",63731,34.704130,-86.783509,"2016-04-12 16:46:55","2017-06-20 09:38:14",NULL
220,1,"Meridianville","meridianville",6406,34.868820,-86.550165,"2016-04-12 16:46:55","2017-06-20 09:38:14",NULL
221,1,"New Hope","new-hope",5065,34.565134,-86.357952,"2016-04-12 16:46:55","2017-06-20 09:38:14",NULL
222,1,"New Market","new-market",11630,34.940954,-86.378220,"2016-04-12 16:46:56","2017-06-20 09:38:14",NULL
223,1,"Huntsville","huntsville",190178,34.709556,-86.631221,"2016-04-12 16:46:56","2017-06-20 09:38:14",NULL
224,1,"Owens Cross Roads","owens-cross-roads",14216,34.612916,-86.479436,"2016-04-12 16:46:56","2017-06-20 09:38:14",NULL
225,1,"Paint Rock","paint-rock",653,34.740694,-86.317392,"2016-04-12 16:46:56","2017-06-20 09:38:14",NULL
226,1,"Pisgah","pisgah",4013,34.692206,-85.838386,"2016-04-12 16:46:56","2017-06-20 09:38:14",NULL
227,1,"Princeton","princeton",150,34.871804,-86.276800,"2016-04-12 16:46:56","2017-06-20 09:38:14",NULL
228,1,"Ryland","ryland",0,34.769918,-86.481548,"2016-04-12 16:46:56","2016-08-30 10:17:35",NULL
229,1,"Scottsboro","scottsboro",21118,34.661465,-86.078446,"2016-04-12 16:46:56","2017-06-20 09:38:14",NULL
230,1,"Section","section",3645,34.553696,-85.991744,"2016-04-12 16:46:56","2017-06-20 09:38:14",NULL
231,1,"Stevenson","stevenson",4908,34.925451,-85.889555,"2016-04-12 16:46:56","2017-06-20 09:38:14",NULL
232,1,"Toney","toney",13018,34.882376,-86.640955,"2016-04-12 16:46:56","2017-06-20 09:38:14",NULL
233,1,"Trenton","trenton",165,34.765650,-86.231094,"2016-04-12 16:46:56","2017-06-20 09:38:14",NULL
234,1,"Valhermoso Springs","valhermoso-springs",636,34.563532,-86.691322,"2016-04-12 16:46:56","2017-06-20 09:38:14",NULL
235,1,"Woodville","woodville",3395,34.694061,-86.236174,"2016-04-12 16:46:56","2017-06-20 09:38:14",NULL
236,1,"Gadsden","gadsden",67082,34.006252,-85.955865,"2016-04-12 16:46:56","2017-06-20 09:38:14",NULL
237,1,"Rainbow City","rainbow-city",9897,33.924086,-86.083542,"2016-04-12 16:46:56","2017-06-20 09:38:15",NULL
238,1,"Albertville","albertville",33924,34.294993,-86.215846,"2016-04-12 16:46:56","2017-06-20 09:38:15",NULL
239,1,"Altoona","altoona",7727,34.031465,-86.317392,"2016-04-12 16:46:56","2017-06-20 09:38:15",NULL
240,1,"Ashville","ashville",7319,33.849591,-86.195517,"2016-04-12 16:46:56","2017-06-20 09:38:15",NULL
241,1,"Attalla","attalla",12416,34.025229,-86.114105,"2016-04-12 16:46:56","2017-06-20 09:38:15",NULL
242,1,"Boaz","boaz",24535,34.161143,-86.195453,"2016-04-12 16:46:56","2017-06-20 09:38:15",NULL
243,1,"Bryant","bryant",3582,34.939649,-85.664037,"2016-04-12 16:46:56","2016-08-30 10:17:35",NULL
244,1,"Cedar Bluff","cedar-bluff",4836,34.232406,-85.664037,"2016-04-12 16:46:56","2017-06-20 09:38:15",NULL
245,1,"Centre","centre",10087,34.117722,-85.561210,"2016-04-12 16:46:56","2017-06-20 09:38:15",NULL
246,1,"Collinsville","collinsville",6514,34.283840,-85.869093,"2016-04-12 16:46:56","2017-06-20 09:38:15",NULL
247,1,"Crossville","crossville",8300,34.289226,-86.032563,"2016-04-12 16:46:56","2017-06-20 09:38:15",NULL
248,1,"Dawson","dawson",1704,34.363829,-85.940675,"2016-04-12 16:46:56","2017-06-20 09:38:15",NULL
249,1,"Douglas","douglas",0,34.179585,-86.316498,"2016-04-12 16:46:56","2017-06-20 09:38:15",NULL
250,1,"Flat Rock","flat-rock",3914,34.808932,-85.705112,"2016-04-12 16:46:56","2016-08-30 10:17:35",NULL
251,1,"Fort Payne","fort-payne",21205,34.439766,-85.730762,"2016-04-12 16:46:56","2017-06-20 09:38:15",NULL
252,1,"Fyffe","fyffe",4914,34.463844,-85.950892,"2016-04-12 16:46:56","2017-06-20 09:38:15",NULL
253,1,"Gallant","gallant",1139,33.995941,-86.246334,"2016-04-12 16:46:56","2017-06-20 09:38:15",NULL
254,1,"Gaylesville","gaylesville",2870,34.361027,-85.540621,"2016-04-12 16:46:56","2017-06-20 09:38:15",NULL
255,1,"Geraldine","geraldine",1589,34.365840,-86.001952,"2016-04-12 16:46:56","2017-06-20 09:38:15",NULL
256,1,"Grove Oak","grove-oak",1058,34.434285,-86.063156,"2016-04-12 16:46:56","2017-06-20 09:38:15",NULL
257,1,"Guntersville","guntersville",16272,34.342451,-86.317392,"2016-04-12 16:46:56","2017-06-20 09:38:15",NULL
258,1,"Henagar","henagar",5390,34.632386,-85.705112,"2016-04-12 16:46:56","2017-06-20 09:38:15",NULL
259,1,"Higdon","higdon",1398,34.837961,-85.592079,"2016-04-12 16:46:56","2016-08-30 10:17:35",NULL
260,1,"Horton","horton",5161,34.178087,-86.388351,"2016-04-12 16:46:57","2017-06-20 09:38:15",NULL
261,1,"Ider","ider",2141,34.729921,-85.653763,"2016-04-12 16:46:57","2017-06-20 09:38:15",NULL
262,1,"Leesburg","leesburg",3738,34.180839,-85.776916,"2016-04-12 16:46:57","2017-06-20 09:38:15",NULL
263,1,"Mentone","mentone",1889,34.539590,-85.581791,"2016-04-12 16:46:57","2017-06-20 09:38:15",NULL
264,1,"Rainsville","rainsville",7744,34.503991,-85.828146,"2016-04-12 16:46:57","2017-06-20 09:38:15",NULL
265,1,"Steele","steele",2666,33.929140,-86.246334,"2016-04-12 16:46:57","2017-06-20 09:38:15",NULL
266,1,"Sylvania","sylvania",1940,34.558938,-85.817904,"2016-04-12 16:46:57","2017-06-20 09:38:15",NULL
267,1,"Valley Head","valley-head",3573,34.596698,-85.633209,"2016-04-12 16:46:57","2017-06-20 09:38:15",NULL
268,1,"Walnut Grove","walnut-grove",38,34.066561,-86.305345,"2016-04-12 16:46:57","2017-06-20 09:38:15",NULL
269,1,"Autaugaville","autaugaville",1975,32.427913,-86.761749,"2016-04-12 16:46:57","2017-06-20 09:38:15",NULL
270,1,"Banks","banks",1522,31.875702,-85.725637,"2016-04-12 16:46:57","2017-06-20 09:38:15",NULL
271,1,"Billingsley","billingsley",1313,32.652899,-86.721518,"2016-04-12 16:46:57","2017-06-20 09:38:15",NULL
272,1,"Booth","booth",0,32.497615,-86.564047,"2016-04-12 16:46:57","2016-08-30 10:17:35",NULL
273,1,"Brantley","brantley",2566,31.595890,-86.236174,"2016-04-12 16:46:57","2017-06-20 09:38:15",NULL
274,1,"Brundidge","brundidge",4677,31.673028,-85.787166,"2016-04-12 16:46:57","2017-06-20 09:38:15",NULL
275,1,"Cecil","cecil",562,32.298515,-85.996848,"2016-04-12 16:46:57","2017-06-20 09:38:15",NULL
276,1,"Chapman","chapman",0,31.649714,-86.721268,"2016-04-12 16:46:57","2016-08-30 10:17:35",NULL
277,1,"Clayton","clayton",5150,31.864237,-85.396277,"2016-04-12 16:46:57","2017-06-20 09:38:15",NULL
278,1,"Clio","clio",3318,31.677129,-85.571502,"2016-04-12 16:46:57","2017-06-20 09:38:15",NULL
279,1,"Coosada","coosada",1123,32.500405,-86.312320,"2016-04-12 16:46:57","2017-06-20 09:38:15",NULL
280,1,"Deatsville","deatsville",13092,32.598920,-86.398479,"2016-04-12 16:46:57","2017-06-20 09:38:15",NULL
281,1,"East Tallassee","east-tallassee",0,32.610000,-85.810000,"2016-04-12 16:46:57","2016-08-30 10:17:35",NULL
282,1,"Eclectic","eclectic",5428,32.678216,-86.032563,"2016-04-12 16:46:57","2017-06-20 09:38:15",NULL
283,1,"Elmore","elmore",5729,32.540987,-86.347815,"2016-04-12 16:46:57","2017-06-20 09:38:15",NULL
284,1,"Equality","equality",1089,32.814771,-86.073350,"2016-04-12 16:46:57","2017-06-20 09:38:15",NULL
285,1,"Eufaula","eufaula",16261,31.929673,-85.159337,"2016-04-12 16:46:57","2017-06-20 09:38:15",NULL
286,1,"Dozier","dozier",1746,31.509343,-86.398479,"2016-04-12 16:46:57","2017-06-20 09:38:15",NULL
287,1,"Fitzpatrick","fitzpatrick",723,32.175483,-85.869093,"2016-04-12 16:46:57","2017-06-20 09:38:15",NULL
288,1,"Forest Home","forest-home",491,31.840982,-86.882245,"2016-04-12 16:46:57","2017-06-20 09:38:15",NULL
289,1,"Fort Davis","fort-davis",156,32.247790,-85.709480,"2016-04-12 16:46:57","2017-06-20 09:38:15",NULL
290,1,"Fort Deposit","fort-deposit",2339,31.981300,-86.590537,"2016-04-12 16:46:57","2017-06-20 09:38:15",NULL
291,1,"Georgiana","georgiana",4299,31.655827,-86.761749,"2016-04-12 16:46:57","2017-06-20 09:38:15",NULL
292,1,"Glenwood","glenwood",807,31.599326,-86.159915,"2016-04-12 16:46:57","2017-06-20 09:38:15",NULL
293,1,"Goshen","goshen",1913,31.821152,-86.154827,"2016-04-12 16:46:57","2017-06-20 09:38:15",NULL
294,1,"Grady","grady",2003,32.002958,-86.154827,"2016-04-12 16:46:57","2017-06-20 09:38:15",NULL
295,1,"Greenville","greenville",14074,31.720526,-86.620794,"2016-04-12 16:46:57","2017-06-20 09:38:15",NULL
296,1,"Gantt","gantt",57,31.409053,-86.485021,"2016-04-12 16:46:57","2017-06-20 09:38:15",NULL
297,1,"Hardaway","hardaway",253,32.276425,-85.838386,"2016-04-12 16:46:57","2017-06-20 09:38:15",NULL
298,1,"Hayneville","hayneville",3976,32.153961,-86.681253,"2016-04-12 16:46:57","2017-06-20 09:38:15",NULL
299,1,"Highland Home","highland-home",1318,31.905820,-86.327535,"2016-04-12 16:46:57","2017-06-20 09:38:15",NULL
300,1,"Honoraville","honoraville",1500,31.874878,-86.438974,"2016-04-12 16:46:57","2017-06-20 09:38:15",NULL
301,1,"Hope Hull","hope-hull",3666,32.238089,-86.438974,"2016-04-12 16:46:57","2017-06-20 09:38:15",NULL
302,1,"Kent","kent",0,32.620000,-85.950000,"2016-04-12 16:46:57","2016-08-30 10:17:36",NULL
303,1,"Lapine","lapine",1490,32.053173,-86.317392,"2016-04-12 16:46:58","2017-06-20 09:38:15",NULL
304,1,"Letohatchee","letohatchee",1396,32.082124,-86.540067,"2016-04-12 16:46:58","2017-06-20 09:38:15",NULL
305,1,"Louisville","louisville",1459,31.804026,-85.622930,"2016-04-12 16:46:58","2017-06-20 09:38:15",NULL
306,1,"Luverne","luverne",5706,31.779265,-86.276800,"2016-04-12 16:46:58","2017-06-20 09:38:15",NULL
307,1,"Marbury","marbury",2304,32.701275,-86.471122,"2016-04-12 16:46:58","2017-06-20 09:38:15",NULL
308,1,"Mathews","mathews",739,32.180700,-86.032563,"2016-04-12 16:46:58","2017-06-20 09:38:15",NULL
309,1,"Midway","midway",1967,32.025394,-85.458186,"2016-04-12 16:46:58","2017-06-20 09:38:15",NULL
310,1,"Millbrook","millbrook",15066,32.473762,-86.368087,"2016-04-12 16:46:58","2017-06-20 09:38:15",NULL
311,1,"Mount Meigs","mount-meigs",0,32.348231,-86.095544,"2016-04-12 16:46:58","2016-08-30 10:17:36",NULL
312,1,"Perote","perote",0,32.000000,-85.750000,"2016-04-12 16:46:58","2016-08-30 10:17:36",NULL
313,1,"Petrey","petrey",0,31.850000,-86.210000,"2016-04-12 16:46:58","2017-06-20 09:38:15",NULL
314,1,"Pike Road","pike-road",6753,32.317890,-86.073350,"2016-04-12 16:46:58","2017-06-20 09:38:15",NULL
315,1,"Ramer","ramer",1935,32.080875,-86.106579,"2016-04-12 16:46:58","2017-06-20 09:38:15",NULL
316,1,"Prattville","prattville",46043,32.460543,-86.465134,"2016-04-12 16:46:58","2017-06-20 09:38:15",NULL
317,1,"Rutledge","rutledge",766,31.691689,-86.398479,"2016-04-12 16:46:58","2017-06-20 09:38:16",NULL
318,1,"Shorter","shorter",2226,32.390924,-85.879325,"2016-04-12 16:46:58","2017-06-20 09:38:16",NULL
319,1,"Tallassee","tallassee",13179,32.540169,-85.950892,"2016-04-12 16:46:58","2017-06-20 09:38:16",NULL
320,1,"Troy","troy",26273,31.825722,-85.951275,"2016-04-12 16:46:58","2017-06-20 09:38:16",NULL
321,1,"Titus","titus",2271,32.730794,-86.276800,"2016-04-12 16:46:58","2017-06-20 09:38:16",NULL
322,1,"Tuskegee","tuskegee",14330,32.419366,-85.691701,"2016-04-12 16:46:58","2017-06-20 09:38:16",NULL
323,1,"Union Springs","union-springs",8760,32.148066,-85.725637,"2016-04-12 16:46:58","2017-06-20 09:38:16",NULL
324,1,"Verbena","verbena",3648,32.782854,-86.519865,"2016-04-12 16:46:58","2017-06-20 09:38:16",NULL
325,1,"Wetumpka","wetumpka",29730,32.569112,-86.154811,"2016-04-12 16:46:58","2017-06-20 09:38:16",NULL
326,1,"Montgomery","montgomery",214703,32.357876,-86.275398,"2016-04-12 16:46:58","2017-06-20 09:38:16",NULL
327,1,"Anniston","anniston",52019,33.680984,-85.822742,"2016-04-12 16:46:59","2017-06-20 09:38:16",NULL
328,1,"Oxford","oxford",18799,33.607956,-85.840743,"2016-04-12 16:46:59","2017-06-20 09:38:16",NULL
329,1,"Alexandria","alexandria",4603,33.762090,-85.899783,"2016-04-12 16:46:59","2017-06-20 09:38:16",NULL
330,1,"Ashland","ashland",5103,33.236029,-85.889555,"2016-04-12 16:46:59","2017-06-20 09:38:16",NULL
331,1,"Choccolocco","choccolocco",0,33.659713,-85.703668,"2016-04-12 16:46:59","2017-06-20 09:38:16",NULL
332,1,"Cragford","cragford",969,33.163906,-85.746155,"2016-04-12 16:46:59","2017-06-20 09:38:16",NULL
333,1,"Daviston","daviston",1570,33.050912,-85.725637,"2016-04-12 16:46:59","2017-06-20 09:38:16",NULL
334,1,"Delta","delta",1599,33.499314,-85.725637,"2016-04-12 16:46:59","2017-06-20 09:38:16",NULL
335,1,"Eastaboga","eastaboga",4247,33.586778,-86.001952,"2016-04-12 16:46:59","2017-06-20 09:38:16",NULL
336,1,"Edwardsville","edwardsville",0,33.646940,-85.587430,"2016-04-12 16:46:59","2017-06-20 09:38:16",NULL
337,1,"Fruithurst","fruithurst",1448,33.867744,-85.416921,"2016-04-12 16:46:59","2017-06-20 09:38:16",NULL
338,1,"Graham","graham",658,33.475213,-85.365296,"2016-04-12 16:46:59","2017-06-20 09:38:16",NULL
339,1,"Heflin","heflin",8659,33.582972,-85.561210,"2016-04-12 16:46:59","2017-06-20 09:38:16",NULL
340,1,"Jacksonville","jacksonville",21060,33.836354,-85.787166,"2016-04-12 16:46:59","2017-06-20 09:38:16",NULL
341,1,"Lineville","lineville",5582,33.343311,-85.746155,"2016-04-12 16:46:59","2017-06-20 09:38:16",NULL
342,1,"Millerville","millerville",35,33.191504,-85.926892,"2016-04-12 16:46:59","2017-06-20 09:38:16",NULL
343,1,"Munford","munford",5432,33.484485,-85.950892,"2016-04-12 16:46:59","2017-06-20 09:38:16",NULL
344,1,"Muscadine","muscadine",1395,33.744004,-85.385952,"2016-04-12 16:46:59","2017-06-20 09:38:16",NULL
345,1,"Ohatchee","ohatchee",6023,33.753945,-85.991744,"2016-04-12 16:46:59","2017-06-20 09:38:16",NULL
346,1,"Piedmont","piedmont",13389,33.924480,-85.611313,"2016-04-12 16:46:59","2017-06-20 09:38:16",NULL
347,1,"Ranburne","ranburne",2914,33.543058,-85.385952,"2016-04-12 16:46:59","2017-06-20 09:38:16",NULL
348,1,"Roanoke","roanoke",11199,33.215723,-85.313622,"2016-04-12 16:46:59","2017-06-20 09:38:16",NULL
349,1,"Spring Garden","spring-garden",0,33.972992,-85.554056,"2016-04-12 16:46:59","2017-06-20 09:38:16",NULL
350,1,"Wadley","wadley",2592,33.135023,-85.561210,"2016-04-12 16:46:59","2017-06-20 09:38:16",NULL
351,1,"Weaver","weaver",5420,33.765101,-85.823025,"2016-04-12 16:46:59","2017-06-20 09:38:16",NULL
352,1,"Wedowee","wedowee",4366,33.336122,-85.540621,"2016-04-12 16:47:00","2017-06-20 09:38:16",NULL
353,1,"Wellington","wellington",2645,33.873569,-85.899783,"2016-04-12 16:47:00","2017-06-20 09:38:16",NULL
354,1,"Woodland","woodland",3932,33.374895,-85.375625,"2016-04-12 16:47:00","2017-06-20 09:38:16",NULL
355,1,"Dothan","dothan",80446,31.211996,-85.414855,"2016-04-12 16:47:00","2017-06-20 09:38:16",NULL
356,1,"Abbeville","abbeville",6783,31.585205,-85.230841,"2016-04-12 16:47:00","2017-06-20 09:38:16",NULL
357,1,"Ariton","ariton",2770,31.579198,-85.705112,"2016-04-12 16:47:00","2017-06-20 09:38:16",NULL
358,1,"Ashford","ashford",6187,31.152463,-85.251548,"2016-04-12 16:47:00","2017-06-20 09:38:16",NULL
359,1,"Bellwood","bellwood",285,31.166802,-85.788447,"2016-04-12 16:47:00","2017-06-20 09:38:16",NULL
360,1,"Black","black",595,31.021990,-85.776916,"2016-04-12 16:47:00","2017-06-20 09:38:16",NULL
361,1,"Chancellor","chancellor",1722,31.184799,-85.858859,"2016-04-12 16:47:00","2017-06-20 09:38:16",NULL
362,1,"Clopton","clopton",590,31.658819,-85.375625,"2016-04-12 16:47:00","2017-06-20 09:38:16",NULL
363,1,"Coffee Springs","coffee-springs",1296,31.176285,-85.950892,"2016-04-12 16:47:00","2017-06-20 09:38:16",NULL
364,1,"Columbia","columbia",2276,31.330541,-85.127191,"2016-04-12 16:47:00","2017-06-20 09:38:16",NULL
365,1,"Cottonwood","cottonwood",3837,31.060993,-85.251548,"2016-04-12 16:47:00","2017-06-20 09:38:16",NULL
366,1,"Cowarts","cowarts",1632,31.205589,-85.298110,"2016-04-12 16:47:00","2017-06-20 09:38:16",NULL
367,1,"Daleville","daleville",9072,31.261131,-85.746155,"2016-04-12 16:47:00","2017-06-20 09:38:16",NULL
368,1,"Elba","elba",8255,31.454188,-86.073350,"2016-04-12 16:47:00","2017-06-20 09:38:16",NULL
369,1,"Enterprise","enterprise",35530,31.315637,-85.854508,"2016-04-12 16:47:00","2017-06-20 09:38:16",NULL
370,1,"Geneva","geneva",5490,31.048183,-85.879325,"2016-04-12 16:47:00","2017-06-20 09:38:16",NULL
371,1,"Gordon","gordon",1579,31.056368,-85.127191,"2016-04-12 16:47:00","2017-06-20 09:38:16",NULL
372,1,"Hartford","hartford",5732,31.076849,-85.705112,"2016-04-12 16:47:00","2017-06-20 09:38:16",NULL
373,1,"Headland","headland",7822,31.382349,-85.292938,"2016-04-12 16:47:00","2017-06-20 09:38:16",NULL
374,1,"Jack","jack",1456,31.540316,-85.910009,"2016-04-12 16:47:00","2017-06-20 09:38:16",NULL
375,1,"Malvern","malvern",0,31.138958,-85.529936,"2016-04-12 16:47:00","2017-06-20 09:38:16",NULL
376,1,"Midland City","midland-city",6540,31.344097,-85.499419,"2016-04-12 16:47:00","2017-06-20 09:38:16",NULL
377,1,"New Brockton","new-brockton",3146,31.449093,-85.910009,"2016-04-12 16:47:00","2017-06-20 09:38:16",NULL
378,1,"Newton","newton",4885,31.257006,-85.622930,"2016-04-12 16:47:00","2017-06-20 09:38:16",NULL
379,1,"Newville","newville",1968,31.476578,-85.375625,"2016-04-12 16:47:00","2017-06-20 09:38:16",NULL
380,1,"Ozark","ozark",20157,31.438761,-85.641744,"2016-04-12 16:47:00","2017-06-20 09:38:16",NULL
381,1,"Fort Rucker","fort-rucker",4637,31.362881,-85.715375,"2016-04-12 16:47:00","2017-06-20 09:38:16",NULL
382,1,"Pansey","pansey",972,31.137571,-85.158306,"2016-04-12 16:47:00","2017-06-20 09:38:16",NULL
383,1,"Pinckard","pinckard",720,31.312199,-85.546412,"2016-04-12 16:47:00","2017-06-20 09:38:16",NULL
384,1,"Shorterville","shorterville",581,31.511385,-85.085676,"2016-04-12 16:47:00","2017-06-20 09:38:16",NULL
385,1,"Skipperville","skipperville",970,31.572142,-85.499419,"2016-04-12 16:47:00","2017-06-20 09:38:16",NULL
386,1,"Slocomb","slocomb",7390,31.049108,-85.561210,"2016-04-12 16:47:01","2017-06-20 09:38:16",NULL
387,1,"Webb","webb",2445,31.255662,-85.261899,"2016-04-12 16:47:01","2017-06-20 09:38:16",NULL
388,1,"Evergreen","evergreen",8314,31.434191,-86.954576,"2016-04-12 16:47:01","2017-06-20 09:38:16",NULL
389,1,"Andalusia","andalusia",19914,31.284292,-86.519849,"2016-04-12 16:47:01","2017-06-20 09:38:16",NULL
390,1,"Beatrice","beatrice",1008,31.756454,-87.162234,"2016-04-12 16:47:01","2017-06-20 09:38:16",NULL
391,1,"Brewton","brewton",16202,31.099792,-87.046937,"2016-04-12 16:47:01","2017-06-20 09:38:16",NULL
392,1,"Brooklyn","brooklyn",0,31.263033,-86.769730,"2016-04-12 16:47:01","2016-08-30 10:17:37",NULL
393,1,"Castleberry","castleberry",2420,31.298290,-87.082405,"2016-04-12 16:47:01","2017-06-20 09:38:16",NULL
394,1,"Coy","coy",579,31.854179,-87.480207,"2016-04-12 16:47:01","2017-06-20 09:38:17",NULL
395,1,"Dickinson","dickinson",531,31.777699,-87.648247,"2016-04-12 16:47:01","2017-06-20 09:38:17",NULL
396,1,"Excel","excel",583,31.425479,-87.350050,"2016-04-12 16:47:01","2017-06-20 09:38:17",NULL
397,1,"Flomaton","flomaton",3576,31.027102,-87.241930,"2016-04-12 16:47:01","2017-06-20 09:38:17",NULL
398,1,"Florala","florala",3555,31.074551,-86.378220,"2016-04-12 16:47:01","2017-06-20 09:38:17",NULL
399,1,"Franklin","franklin",702,31.714586,-87.411371,"2016-04-12 16:47:01","2017-06-20 09:38:17",NULL
400,1,"Frisco City","frisco-city",5050,31.467021,-87.500008,"2016-04-12 16:47:01","2017-06-20 09:38:17",NULL
401,1,"Fulton","fulton",490,31.788979,-87.720956,"2016-04-12 16:47:01","2017-06-20 09:38:17",NULL
402,1,"Goodway","goodway",0,31.340000,-87.430000,"2016-04-12 16:47:01","2017-06-21 09:32:41","2017-06-21 09:32:41"
403,1,"Grove Hill","grove-hill",4977,31.746499,-87.815672,"2016-04-12 16:47:01","2017-06-20 09:38:17",NULL
404,1,"Kinston","kinston",2198,31.136766,-86.154827,"2016-04-12 16:47:01","2017-06-20 09:38:17",NULL
405,1,"Lenox","lenox",51,31.343751,-87.199608,"2016-04-12 16:47:01","2017-06-20 09:38:17",NULL
406,1,"Lockhart","lockhart",465,31.010162,-86.349740,"2016-04-12 16:47:01","2017-06-20 09:38:17",NULL
407,1,"McKenzie","mckenzie",1820,31.519016,-86.761749,"2016-04-12 16:47:01","2017-06-20 09:38:17",NULL
408,1,"Megargel","megargel",0,31.379888,-87.428185,"2016-04-12 16:47:01","2017-06-20 09:38:17",NULL
409,1,"Mexia","mexia",0,31.504036,-87.396117,"2016-04-12 16:47:01","2016-08-30 10:17:37",NULL
410,1,"Monroeville","monroeville",10738,31.530955,-87.320746,"2016-04-12 16:47:01","2017-06-20 09:38:17",NULL
411,1,"Opp","opp",10058,31.276367,-86.236174,"2016-04-12 16:47:01","2017-06-20 09:38:17",NULL
412,1,"Perdue Hill","perdue-hill",98,31.515989,-87.496515,"2016-04-12 16:47:01","2017-06-20 09:38:17",NULL
413,1,"Peterman","peterman",1257,31.621469,-87.241930,"2016-04-12 16:47:01","2017-06-20 09:38:17",NULL
414,1,"Range","range",106,31.358735,-87.231975,"2016-04-12 16:47:01","2017-06-20 09:38:17",NULL
415,1,"Red Level","red-level",2926,31.423561,-86.600625,"2016-04-12 16:47:01","2017-06-20 09:38:17",NULL
416,1,"Repton","repton",2208,31.394071,-87.281727,"2016-04-12 16:47:01","2017-06-20 09:38:17",NULL
417,1,"River Falls","river-falls",51,31.349914,-86.541961,"2016-04-12 16:47:01","2017-06-20 09:38:17",NULL
418,1,"Samson","samson",4946,31.065040,-86.052960,"2016-04-12 16:47:01","2017-06-20 09:38:17",NULL
419,1,"Uriah","uriah",1773,31.308940,-87.598888,"2016-04-12 16:47:01","2017-06-20 09:38:17",NULL
420,1,"Vredenburgh","vredenburgh",593,31.824040,-87.395956,"2016-04-12 16:47:02","2017-06-20 09:38:17",NULL
421,1,"Whatley","whatley",1090,31.629383,-87.638380,"2016-04-12 16:47:02","2017-06-20 09:38:17",NULL
422,1,"Atmore","atmore",18355,31.087822,-87.487790,"2016-04-12 16:47:02","2017-06-20 09:38:17",NULL
423,1,"Axis","axis",1481,30.949166,-87.992268,"2016-04-12 16:47:02","2017-06-20 09:38:17",NULL
424,1,"Bay Minette","bay-minette",19090,30.922026,-87.736961,"2016-04-12 16:47:02","2017-06-20 09:38:17",NULL
425,1,"Bayou La Batre","bayou-la-batre",1983,30.406952,-88.260719,"2016-04-12 16:47:02","2017-06-20 09:38:17",NULL
426,1,"Bon Secour","bon-secour",764,30.307027,-87.751730,"2016-04-12 16:47:02","2017-06-20 09:38:17",NULL
427,1,"Bucks","bucks",46,31.003752,-87.999612,"2016-04-12 16:47:02","2017-06-20 09:38:17",NULL
428,1,"Calvert","calvert",555,31.157583,-88.009795,"2016-04-12 16:47:02","2017-06-20 09:38:17",NULL
429,1,"Carlton","carlton",0,31.310806,-87.891766,"2016-04-12 16:47:02","2017-06-20 09:38:17",NULL
430,1,"Chatom","chatom",2842,31.457806,-88.343362,"2016-04-12 16:47:02","2017-06-20 09:38:17",NULL
431,1,"Chunchula","chunchula",5431,30.952040,-88.187668,"2016-04-12 16:47:02","2017-06-20 09:38:17",NULL
432,1,"Citronelle","citronelle",7183,31.113856,-88.285042,"2016-04-12 16:47:02","2017-06-20 09:38:17",NULL
433,1,"Coden","coden",2818,30.365225,-88.158413,"2016-04-12 16:47:02","2017-06-20 09:38:17",NULL
434,1,"Coffeeville","coffeeville",1232,31.817722,-87.992268,"2016-04-12 16:47:02","2017-06-20 09:38:17",NULL
435,1,"Creola","creola",1935,30.868695,-87.982476,"2016-04-12 16:47:02","2017-06-20 09:38:17",NULL
436,1,"Daphne","daphne",27890,30.625712,-87.874615,"2016-04-12 16:47:02","2017-06-20 09:38:17",NULL
437,1,"Spanish Fort","spanish-fort",12109,30.694466,-87.916543,"2016-04-12 16:47:02","2017-06-20 09:38:17",NULL
438,1,"Dauphin Island","dauphin-island",1237,30.249095,-88.099845,"2016-04-12 16:47:02","2017-06-20 09:38:17",NULL
439,1,"Deer Park","deer-park",478,31.319628,-88.265585,"2016-04-12 16:47:02","2017-06-20 09:38:17",NULL
440,1,"Elberta","elberta",6873,30.390021,-87.559361,"2016-04-12 16:47:02","2017-06-20 09:38:17",NULL
441,1,"Fairhope","fairhope",27829,30.503819,-87.887308,"2016-04-12 16:47:02","2017-06-20 09:38:17",NULL
442,1,"Foley","foley",26767,30.401431,-87.698631,"2016-04-12 16:47:02","2017-06-20 09:38:17",NULL
443,1,"Frankville","frankville",374,31.671830,-88.138899,"2016-04-12 16:47:02","2017-06-20 09:38:17",NULL
444,1,"Fruitdale","fruitdale",802,31.366880,-88.382199,"2016-04-12 16:47:02","2017-06-20 09:38:17",NULL
445,1,"Gainestown","gainestown",691,31.436272,-87.687697,"2016-04-12 16:47:02","2017-06-20 09:38:17",NULL
446,1,"Grand Bay","grand-bay",15647,30.494404,-88.343362,"2016-04-12 16:47:02","2017-06-20 09:38:17",NULL
447,1,"Gulf Shores","gulf-shores",12705,30.274990,-87.688919,"2016-04-12 16:47:02","2017-06-20 09:38:17",NULL
448,1,"Huxford","huxford",66,31.219463,-87.461945,"2016-04-12 16:47:02","2017-06-20 09:38:17",NULL
449,1,"Irvington","irvington",12476,30.492876,-88.226643,"2016-04-12 16:47:02","2017-06-20 09:38:17",NULL
450,1,"Jackson","jackson",9941,31.657908,-87.972681,"2016-04-12 16:47:02","2017-06-20 09:38:17",NULL
451,1,"Leroy","leroy",1136,31.486914,-87.982476,"2016-04-12 16:47:02","2017-06-20 09:38:17",NULL
452,1,"Lillian","lillian",4271,30.433825,-87.440579,"2016-04-12 16:47:02","2017-06-20 09:38:17",NULL
453,1,"Little River","little-river",217,31.266033,-87.756651,"2016-04-12 16:47:02","2017-06-20 09:38:17",NULL
454,1,"Loxley","loxley",8258,30.623739,-87.756651,"2016-04-12 16:47:02","2017-06-20 09:38:17",NULL
455,1,"McIntosh","mcintosh",3575,31.225337,-88.070532,"2016-04-12 16:47:02","2017-06-20 09:38:17",NULL
456,1,"Magnolia Springs","magnolia-springs",654,30.402475,-87.773874,"2016-04-12 16:47:02","2017-06-20 09:38:17",NULL
457,1,"Malcolm","malcolm",308,31.189347,-87.962884,"2016-04-12 16:47:02","2017-06-20 09:38:17",NULL
458,1,"Millry","millry",3854,31.572228,-88.362785,"2016-04-12 16:47:02","2017-06-20 09:38:17",NULL
459,1,"Montrose","montrose",233,30.565644,-87.901374,"2016-04-12 16:47:02","2017-06-20 09:38:17",NULL
460,1,"Mount Vernon","mount-vernon",3690,31.087335,-88.031417,"2016-04-12 16:47:02","2017-06-20 09:38:17",NULL
461,1,"Orange Beach","orange-beach",5808,30.286488,-87.569246,"2016-04-12 16:47:02","2017-06-20 09:38:17",NULL
462,1,"Perdido","perdido",1596,31.034931,-87.638380,"2016-04-12 16:47:02","2017-06-20 09:38:17",NULL
463,1,"Point Clear","point-clear",107,30.472261,-87.905217,"2016-04-12 16:47:02","2017-06-20 09:38:17",NULL
464,1,"Robertsdale","robertsdale",12672,30.643566,-87.579129,"2016-04-12 16:47:02","2017-06-20 09:38:17",NULL
465,1,"Saint Elmo","saint-elmo",162,30.504383,-88.252034,"2016-04-12 16:47:02","2017-06-20 09:38:17",NULL
466,1,"Saint Stephens","saint-stephens",928,31.545345,-88.070532,"2016-04-12 16:47:02","2017-06-20 09:38:17",NULL
467,1,"Saraland","saraland",14423,30.824254,-88.080305,"2016-04-12 16:47:03","2017-06-20 09:38:17",NULL
468,1,"Satsuma","satsuma",6340,30.852594,-88.055868,"2016-04-12 16:47:03","2017-06-20 09:38:17",NULL
469,1,"Seminole","seminole",1341,30.514981,-87.470303,"2016-04-12 16:47:03","2017-06-20 09:38:18",NULL
470,1,"Semmes","semmes",18345,30.769425,-88.265585,"2016-04-12 16:47:03","2017-06-20 09:38:18",NULL
471,1,"Silverhill","silverhill",4143,30.520370,-87.766493,"2016-04-12 16:47:03","2017-06-20 09:38:18",NULL
472,1,"Stapleton","stapleton",1749,30.750000,-87.746807,"2016-04-12 16:47:03","2017-06-20 09:38:18",NULL
473,1,"Stockton","stockton",1590,31.130025,-87.835328,"2016-04-12 16:47:03","2017-06-20 09:38:18",NULL
474,1,"Summerdale","summerdale",5420,30.496329,-87.707409,"2016-04-12 16:47:03","2017-06-20 09:38:18",NULL
475,1,"Sunflower","sunflower",224,31.381725,-88.008401,"2016-04-12 16:47:03","2017-06-20 09:38:18",NULL
476,1,"Theodore","theodore",24644,30.520899,-88.164329,"2016-04-12 16:47:03","2017-06-20 09:38:18",NULL
477,1,"Tibbie","tibbie",639,31.364292,-88.187668,"2016-04-12 16:47:03","2017-06-20 09:38:18",NULL
478,1,"Vinegar Bend","vinegar-bend",772,31.183825,-88.382199,"2016-04-12 16:47:03","2017-06-20 09:38:18",NULL
479,1,"Wagarville","wagarville",972,31.383948,-87.972681,"2016-04-12 16:47:03","2017-06-20 09:38:18",NULL
480,1,"Wilmer","wilmer",12053,30.839596,-88.362785,"2016-04-12 16:47:03","2017-06-20 09:38:18",NULL
481,1,"Mobile","mobile",270712,30.689278,-88.105246,"2016-04-12 16:47:03","2017-06-20 09:38:18",NULL
482,1,"Selma","selma",37911,32.439336,-86.996348,"2016-04-12 16:47:03","2017-06-20 09:38:18",NULL
483,1,"Alberta","alberta",784,32.157938,-87.331426,"2016-04-12 16:47:03","2016-08-30 10:17:38",NULL
484,1,"Anne Manie","anne-manie",0,32.050000,-87.570000,"2016-04-12 16:47:03","2016-08-30 10:17:38",NULL
485,1,"Arlington","arlington",472,32.071895,-87.569246,"2016-04-12 16:47:03","2017-06-20 09:38:18",NULL
486,1,"Boykin","boykin",230,32.062374,-87.307826,"2016-04-12 16:47:03","2017-06-20 09:38:18",NULL
487,1,"Camden","camden",4814,31.917930,-87.261833,"2016-04-12 16:47:03","2017-06-20 09:38:18",NULL
488,1,"Campbell","campbell",61,31.920902,-88.041199,"2016-04-12 16:47:03","2017-06-20 09:38:18",NULL
489,1,"Catherine","catherine",461,32.172322,-87.480207,"2016-04-12 16:47:03","2017-06-20 09:38:18",NULL
490,1,"Demopolis","demopolis",8395,32.406884,-87.913867,"2016-04-12 16:47:03","2017-06-20 09:38:18",NULL
491,1,"Dixons Mills","dixons-mills",1207,32.075509,-87.766493,"2016-04-12 16:47:03","2017-06-20 09:38:18",NULL
492,1,"Faunsdale","faunsdale",952,32.401301,-87.598888,"2016-04-12 16:47:03","2017-06-20 09:38:18",NULL
493,1,"Forkland","forkland",1328,32.620306,-87.825501,"2016-04-12 16:47:03","2017-06-20 09:38:18",NULL
494,1,"Furman","furman",0,32.007151,-86.937372,"2016-04-12 16:47:03","2016-08-30 10:17:38",NULL
495,1,"Gallion","gallion",2554,32.496853,-87.716046,"2016-04-12 16:47:03","2017-06-20 09:38:18",NULL
496,1,"Greensboro","greensboro",7419,32.672673,-87.598888,"2016-04-12 16:47:03","2017-06-20 09:38:18",NULL
497,1,"Jefferson","jefferson",0,32.386373,-87.872160,"2016-04-12 16:47:03","2017-06-20 09:38:18",NULL
498,1,"Linden","linden",3260,32.290560,-87.736961,"2016-04-12 16:47:03","2017-06-20 09:38:18",NULL
499,1,"Jones","jones",1089,32.565625,-86.842113,"2016-04-12 16:47:04","2017-06-20 09:38:18",NULL
500,1,"Maplesville","maplesville",2901,32.791362,-86.842113,"2016-04-12 16:47:04","2017-06-20 09:38:18",NULL
501,1,"Lower Peach Tree","lower-peach-tree",945,31.810191,-87.559361,"2016-04-12 16:47:04","2017-06-20 09:38:18",NULL
502,1,"Lowndesboro","lowndesboro",1644,32.288919,-86.640955,"2016-04-12 16:47:04","2017-06-20 09:38:18",NULL
503,1,"McWilliams","mcwilliams",85,31.831930,-87.092269,"2016-04-12 16:47:04","2017-06-20 09:38:18",NULL
504,1,"Magnolia","magnolia",344,32.176088,-87.677838,"2016-04-12 16:47:04","2017-06-20 09:38:18",NULL
505,1,"Marion","marion",6165,32.733524,-87.261833,"2016-04-12 16:47:04","2017-06-20 09:38:18",NULL
506,1,"Plantersville","plantersville",1412,32.613768,-86.962409,"2016-04-12 16:47:04","2016-08-30 10:17:39",NULL
507,1,"Marion Junction","marion-junction",1501,32.440159,-87.281727,"2016-04-12 16:47:04","2017-06-20 09:38:18",NULL
508,1,"Morvin","morvin",0,31.970000,-87.970000,"2016-04-12 16:47:04","2016-08-30 10:17:39",NULL
509,1,"Myrtlewood","myrtlewood",139,32.250508,-87.949237,"2016-04-12 16:47:04","2017-06-20 09:38:18",NULL
510,1,"Nanafalia","nanafalia",0,32.130755,-88.016741,"2016-04-12 16:47:04","2017-06-20 09:38:18",NULL
511,1,"Newbern","newbern",1294,32.580765,-87.519801,"2016-04-12 16:47:04","2017-06-20 09:38:18",NULL
512,1,"Oak Hill","oak-hill",25,31.921853,-87.083014,"2016-04-12 16:47:04","2016-08-30 10:17:39",NULL
513,1,"Orrville","orrville",2012,32.257219,-87.202099,"2016-04-12 16:47:04","2017-06-20 09:38:18",NULL
514,1,"Pine Apple","pine-apple",1096,31.912568,-87.022444,"2016-04-12 16:47:04","2017-06-20 09:38:18",NULL
515,1,"Pine Hill","pine-hill",3014,31.991416,-87.519801,"2016-04-12 16:47:04","2017-06-20 09:38:18",NULL
516,1,"Safford","safford",512,32.260629,-87.361221,"2016-04-12 16:47:04","2017-06-20 09:38:18",NULL
517,1,"Sardis","sardis",800,32.206360,-86.962409,"2016-04-12 16:47:04","2017-06-20 09:38:18",NULL
518,1,"Sawyerville","sawyerville",1489,32.720742,-87.756651,"2016-04-12 16:47:04","2017-06-20 09:38:18",NULL
519,1,"Sweet Water","sweet-water",2405,32.111755,-87.894245,"2016-04-12 16:47:04","2017-06-20 09:38:18",NULL
520,1,"Thomaston","thomaston",945,32.219995,-87.598888,"2016-04-12 16:47:04","2017-06-20 09:38:18",NULL
521,1,"Thomasville","thomasville",7754,31.927243,-87.736961,"2016-04-12 16:47:04","2017-06-20 09:38:18",NULL
522,1,"Tyler","tyler",1165,32.202419,-86.801947,"2016-04-12 16:47:04","2017-06-20 09:38:18",NULL
523,1,"Uniontown","uniontown",3365,32.444270,-87.480207,"2016-04-12 16:47:04","2017-06-20 09:38:18",NULL
524,1,"Stanton","stanton",139,32.714642,-86.932363,"2016-04-12 16:47:04","2017-06-20 09:38:18",NULL
525,1,"Randolph","randolph",1169,32.928558,-86.922343,"2016-04-12 16:47:04","2017-06-20 09:38:18",NULL
526,1,"Lawley","lawley",568,32.795287,-87.002441,"2016-04-12 16:47:04","2017-06-20 09:38:18",NULL
527,1,"Opelika","opelika",39075,32.641227,-85.362481,"2016-04-12 16:47:04","2017-06-20 09:38:18",NULL
528,1,"Auburn","auburn",58422,32.540897,-85.513547,"2016-04-12 16:47:04","2017-06-20 09:38:18",NULL
529,1,"Camp Hill","camp-hill",2630,32.756245,-85.664037,"2016-04-12 16:47:04","2017-06-20 09:38:18",NULL
530,1,"Cottonton","cottonton",0,32.146861,-85.073622,"2016-04-12 16:47:04","2016-08-30 10:17:39",NULL
531,1,"Cusseta","cusseta",2129,32.754545,-85.303281,"2016-04-12 16:47:04","2017-06-20 09:38:18",NULL
532,1,"Dadeville","dadeville",8269,32.805498,-85.787166,"2016-04-12 16:47:04","2017-06-20 09:38:18",NULL
533,1,"Valley","valley",14576,32.779089,-85.169337,"2016-04-12 16:47:04","2017-06-20 09:38:18",NULL
534,1,"Five Points","five-points",1551,33.057842,-85.292938,"2016-04-12 16:47:04","2017-06-20 09:38:18",NULL
535,1,"Fort Mitchell","fort-mitchell",3719,32.278499,-84.960946,"2016-04-12 16:47:04","2017-06-20 09:38:18",NULL
536,1,"Hatchechubbee","hatchechubbee",441,32.291280,-85.292938,"2016-04-12 16:47:04","2017-06-20 09:38:18",NULL
537,1,"Holy Trinity","holy-trinity",34,32.220000,-85.010000,"2016-04-12 16:47:04","2017-06-20 09:38:18",NULL
538,1,"Hurtsboro","hurtsboro",1580,32.227167,-85.396277,"2016-04-12 16:47:04","2017-06-20 09:38:18",NULL
539,1,"Jacksons Gap","jacksons-gap",3264,32.896939,-85.828146,"2016-04-12 16:47:05","2017-06-20 09:38:18",NULL
540,1,"Lafayette","lafayette",6623,32.952320,-85.478807,"2016-04-12 16:47:05","2017-06-21 10:12:38",NULL
541,1,"Lanett","lanett",11672,32.876432,-85.251548,"2016-04-12 16:47:05","2017-06-20 09:38:18",NULL
542,1,"Loachapoka","loachapoka",23,32.604066,-85.584363,"2016-04-12 16:47:05","2017-06-20 09:38:18",NULL
543,1,"Notasulga","notasulga",3955,32.578595,-85.746155,"2016-04-12 16:47:05","2017-06-20 09:38:18",NULL
544,1,"Phenix City","phenix-city",59744,32.445074,-85.073662,"2016-04-12 16:47:05","2017-06-20 09:38:18",NULL
545,1,"Pittsview","pittsview",1277,32.150747,-85.168674,"2016-04-12 16:47:05","2017-06-20 09:38:18",NULL
546,1,"Salem","salem",7901,32.559363,-85.210127,"2016-04-12 16:47:05","2017-06-20 09:38:18",NULL
547,1,"Seale","seale",4622,32.331844,-85.168674,"2016-04-12 16:47:05","2017-06-20 09:38:18",NULL
548,1,"Smiths Station","smiths-station",11414,32.554571,-85.085676,"2016-04-12 16:47:05","2017-06-20 09:38:18",NULL
549,1,"Waverly","waverly",2114,32.751927,-85.540621,"2016-04-12 16:47:05","2017-06-20 09:38:18",NULL
550,1,"Bellamy","bellamy",329,32.422001,-88.158413,"2016-04-12 16:47:05","2017-06-20 09:38:18",NULL
551,1,"Butler","butler",4098,32.139532,-88.226643,"2016-04-12 16:47:05","2017-06-20 09:38:18",NULL
552,1,"Cuba","cuba",1930,32.413736,-88.382199,"2016-04-12 16:47:05","2017-06-20 09:38:18",NULL
553,1,"Gilbertown","gilbertown",2417,31.867257,-88.265585,"2016-04-12 16:47:05","2017-06-20 09:38:18",NULL
554,1,"Jachin","jachin",35,32.212258,-88.153535,"2016-04-12 16:47:05","2017-06-20 09:38:18",NULL
555,1,"Lisman","lisman",2017,32.231379,-88.304491,"2016-04-12 16:47:05","2017-06-20 09:38:18",NULL
556,1,"Melvin","melvin",53,31.972017,-88.450079,"2016-04-12 16:47:05","2017-06-20 09:38:18",NULL
557,1,"Needham","needham",627,31.959304,-88.343362,"2016-04-12 16:47:05","2017-06-20 09:38:19",NULL
558,1,"Pennington","pennington",709,32.193857,-88.060757,"2016-04-12 16:47:05","2017-06-20 09:38:19",NULL
559,1,"Silas","silas",2143,31.753648,-88.285042,"2016-04-12 16:47:05","2017-06-20 09:38:19",NULL
560,1,"Toxey","toxey",1035,32.002664,-88.187668,"2016-04-12 16:47:05","2017-06-20 09:38:19",NULL
561,1,"Ward","ward",656,32.319908,-88.148657,"2016-04-12 16:47:05","2017-06-20 09:38:19",NULL
562,1,"York","york",3115,32.456938,-88.226643,"2016-04-12 16:47:05","2017-06-20 09:38:19",NULL
563,2,"Anchorage","anchorage",293512,61.301714,-150.022753,"2016-04-12 16:47:05","2017-06-20 09:38:19",NULL
564,2,"Kongiganak","kongiganak",0,60.785610,-161.797620,"2016-04-12 16:47:05","2017-06-20 09:38:19",NULL
565,2,"Adak","adak",326,51.841130,-176.631103,"2016-04-12 16:47:05","2016-08-30 10:17:39",NULL
566,2,"Atka","atka",61,52.230184,-174.209875,"2016-04-12 16:47:05","2017-06-20 09:38:19",NULL
567,2,"Chignik Lake","chignik-lake",73,56.245914,-158.763779,"2016-04-12 16:47:05","2016-08-30 10:17:39",NULL
568,2,"Port Heiden","port-heiden",102,56.967038,-158.619464,"2016-04-12 16:47:05","2017-06-20 09:38:19",NULL
569,2,"Port Lions","port-lions",197,57.876589,-152.929450,"2016-04-12 16:47:05","2017-06-20 09:38:19",NULL
570,2,"Akiachak","akiachak",627,60.903256,-161.408606,"2016-04-12 16:47:05","2016-08-30 10:17:39",NULL
571,2,"Akiak","akiak",346,60.913163,-161.225376,"2016-04-12 16:47:05","2017-06-20 09:38:19",NULL
572,2,"Akutan","akutan",1027,54.117330,-165.814988,"2016-04-12 16:47:05","2017-06-20 09:38:19",NULL
573,2,"Alakanuk","alakanuk",677,62.679830,-164.631070,"2016-04-12 16:47:05","2017-06-20 09:38:19",NULL
574,2,"Aleknagik","aleknagik",221,59.274248,-158.629850,"2016-04-12 16:47:05","2017-06-20 09:38:19",NULL
575,2,"Anchor Point","anchor-point",2510,59.872671,-151.550481,"2016-04-12 16:47:05","2017-06-20 09:38:19",NULL
576,2,"Aniak","aniak",726,61.551251,-154.403916,"2016-04-12 16:47:05","2017-06-20 09:38:19",NULL
577,2,"Anvik","anvik",85,62.639426,-160.226653,"2016-04-12 16:47:05","2017-06-20 09:38:19",NULL
578,2,"Bethel","bethel",7632,60.777223,-161.860610,"2016-04-12 16:47:05","2017-06-20 09:38:19",NULL
579,2,"Chefornak","chefornak",418,60.150788,-164.251343,"2016-04-12 16:47:05","2017-06-20 09:38:19",NULL
580,2,"Chevak","chevak",938,61.528581,-165.592842,"2016-04-12 16:47:05","2017-06-20 09:38:19",NULL
581,2,"Chignik","chignik",91,56.304604,-158.407907,"2016-04-12 16:47:06","2017-06-20 09:38:19",NULL
582,2,"Chignik Lagoon","chignik-lagoon",78,56.303011,-158.528059,"2016-04-12 16:47:06","2016-08-30 10:17:40",NULL
583,2,"Chitina","chitina",192,61.331432,-142.939826,"2016-04-12 16:47:06","2017-06-20 09:38:19",NULL
584,2,"Clam Gulch","clam-gulch",279,60.205443,-151.406176,"2016-04-12 16:47:06","2017-06-20 09:38:19",NULL
585,2,"Clarks Point","clarks-point",64,58.817334,-158.530956,"2016-04-12 16:47:06","2016-08-30 10:17:40",NULL
586,2,"Cold Bay","cold-bay",160,55.215791,-162.768664,"2016-04-12 16:47:06","2017-06-20 09:38:19",NULL
587,2,"Cooper Landing","cooper-landing",296,60.507990,-149.863357,"2016-04-12 16:47:06","2017-06-20 09:38:19",NULL
588,2,"Copper Center","copper-center",1115,61.794277,-145.928801,"2016-04-12 16:47:06","2017-06-20 09:38:19",NULL
589,2,"Cordova","cordova",2348,60.735650,-145.582619,"2016-04-12 16:47:06","2017-06-20 09:38:19",NULL
590,2,"Crooked Creek","crooked-creek",105,61.859535,-158.114849,"2016-04-12 16:47:06","2016-08-30 10:17:40",NULL
591,2,"Dillingham","dillingham",2603,60.134939,-158.490839,"2016-04-12 16:47:06","2017-06-20 09:38:19",NULL
592,2,"Eek","eek",296,60.216109,-162.035686,"2016-04-12 16:47:06","2017-06-20 09:38:19",NULL
593,2,"Egegik","egegik",109,58.184140,-157.452198,"2016-04-12 16:47:06","2017-06-20 09:38:19",NULL
594,2,"Ekwok","ekwok",115,59.364679,-157.497385,"2016-04-12 16:47:06","2017-06-20 09:38:19",NULL
595,2,"Emmonak","emmonak",762,62.771619,-164.535492,"2016-04-12 16:47:06","2017-06-20 09:38:19",NULL
596,2,"False Pass","false-pass",35,54.849252,-163.421410,"2016-04-12 16:47:06","2017-06-20 09:38:19",NULL
597,2,"Marshall","marshall",417,61.931997,-162.270817,"2016-04-12 16:47:06","2017-06-20 09:38:19",NULL
598,2,"Gakona","gakona",605,62.737783,-143.590649,"2016-04-12 16:47:06","2017-06-20 09:38:19",NULL
599,2,"Glennallen","glennallen",980,62.177034,-146.932618,"2016-04-12 16:47:06","2017-06-20 09:38:19",NULL
600,2,"Goodnews Bay","goodnews-bay",243,59.125138,-161.569398,"2016-04-12 16:47:06","2017-06-20 09:38:19",NULL
601,2,"Grayling","grayling",194,62.904674,-160.110430,"2016-04-12 16:47:06","2017-06-20 09:38:19",NULL
602,2,"Saint George Island","saint-george-island",102,56.588840,-169.614585,"2016-04-12 16:47:06","2017-06-26 13:17:26",NULL
603,2,"Holy Cross","holy-cross",178,62.197609,-159.852887,"2016-04-12 16:47:06","2017-06-20 09:38:19",NULL
604,2,"Homer","homer",9840,59.494878,-151.234821,"2016-04-12 16:47:06","2017-06-20 09:38:19",NULL
605,2,"Hooper Bay","hooper-bay",1093,61.527847,-166.122608,"2016-04-12 16:47:06","2017-06-20 09:38:19",NULL
606,2,"Hope","hope",211,60.805317,-149.508687,"2016-04-12 16:47:06","2017-06-20 09:38:19",NULL
607,2,"Iliamna","iliamna",469,59.828020,-154.636400,"2016-04-12 16:47:06","2017-06-20 09:38:19",NULL
608,2,"KALSKAG","kalskag",216,61.797726,-159.719289,"2016-04-12 16:47:06","2017-06-20 09:38:19",NULL
609,2,"Karluk","karluk",0,57.560018,-154.438335,"2016-04-12 16:47:06","2017-06-20 09:38:19",NULL
610,2,"Kasigluk","kasigluk",569,60.816071,-162.585381,"2016-04-12 16:47:06","2016-08-30 10:17:40",NULL
611,2,"Kasilof","kasilof",2167,60.228297,-150.493324,"2016-04-12 16:47:06","2017-06-20 09:38:19",NULL
612,2,"Kenai","kenai",15122,60.684882,-151.122267,"2016-04-12 16:47:06","2017-06-20 09:38:19",NULL
613,2,"King Cove","king-cove",938,55.076652,-162.288995,"2016-04-12 16:47:06","2017-06-20 09:38:19",NULL
614,2,"King Salmon","king-salmon",434,58.909509,-155.562945,"2016-04-12 16:47:06","2017-06-20 09:38:19",NULL
615,2,"Kipnuk","kipnuk",639,59.926871,-164.071730,"2016-04-12 16:47:06","2016-08-30 10:17:40",NULL
616,2,"Kodiak","kodiak",12899,57.534627,-153.419346,"2016-04-12 16:47:06","2017-06-20 09:38:19",NULL
617,2,"Kotlik","kotlik",577,63.030964,-163.538792,"2016-04-12 16:47:06","2017-06-20 09:38:19",NULL
618,2,"Kwethluk","kwethluk",723,60.791043,-161.404503,"2016-04-12 16:47:07","2017-06-20 09:38:19",NULL
619,2,"Kwigillingok","kwigillingok",321,59.866811,-163.181171,"2016-04-12 16:47:07","2016-08-30 10:17:40",NULL
620,2,"Wasilla","wasilla",52168,61.523091,-149.588165,"2016-04-12 16:47:07","2017-06-20 09:38:19",NULL
621,2,"Larsen Bay","larsen-bay",90,57.559541,-153.909037,"2016-04-12 16:47:07","2016-08-30 10:17:40",NULL
622,2,"Levelock","levelock",72,59.333685,-156.481244,"2016-04-12 16:47:07","2017-06-20 09:38:19",NULL
623,2,"Lower Kalskag","lower-kalskag",282,61.516307,-160.367727,"2016-04-12 16:47:07","2017-06-20 09:38:19",NULL
624,2,"McGrath","mcgrath",406,63.488129,-155.035904,"2016-04-12 16:47:07","2017-06-20 09:38:19",NULL
625,2,"Manokotak","manokotak",443,58.965566,-159.008739,"2016-04-12 16:47:07","2017-06-20 09:38:19",NULL
626,2,"Mekoryuk","mekoryuk",191,60.367003,-166.263291,"2016-04-12 16:47:07","2017-06-20 09:38:19",NULL
627,2,"Moose Pass","moose-pass",228,60.573821,-149.408277,"2016-04-12 16:47:07","2017-06-20 09:38:19",NULL
628,2,"Mountain Village","mountain-village",813,62.107517,-163.653090,"2016-04-12 16:47:07","2017-06-20 09:38:19",NULL
629,2,"Naknek","naknek",544,58.812915,-156.813752,"2016-04-12 16:47:07","2016-08-30 10:17:40",NULL
630,2,"Napakiak","napakiak",354,60.691583,-161.980154,"2016-04-12 16:47:07","2017-06-20 09:38:19",NULL
631,2,"Nikiski","nikiski",0,60.730970,-151.302040,"2016-04-12 16:47:07","2017-06-20 09:38:19",NULL
632,2,"New Stuyahok","new-stuyahok",510,59.475242,-157.303653,"2016-04-12 16:47:07","2017-06-20 09:38:19",NULL
633,2,"Toksook Bay","toksook-bay",590,60.536952,-165.161215,"2016-04-12 16:47:07","2017-06-20 09:38:19",NULL
634,2,"Nikolski","nikolski",18,52.904717,-168.909406,"2016-04-12 16:47:07","2016-08-30 10:17:40",NULL
635,2,"Ninilchik","ninilchik",1131,60.064900,-151.508314,"2016-04-12 16:47:07","2017-06-20 09:38:19",NULL
636,2,"Nondalton","nondalton",174,60.067458,-155.455703,"2016-04-12 16:47:07","2017-06-20 09:38:19",NULL
637,2,"Nunapitchuk","nunapitchuk",496,60.896929,-162.458312,"2016-04-12 16:47:07","2017-06-20 09:38:19",NULL
638,2,"Old Harbor","old-harbor",218,57.221251,-153.326294,"2016-04-12 16:47:07","2017-06-20 09:38:19",NULL
639,2,"Ouzinkie","ouzinkie",175,57.923295,-152.441896,"2016-04-12 16:47:07","2017-06-20 09:38:19",NULL
640,2,"Palmer","palmer",25176,61.613672,-149.012972,"2016-04-12 16:47:07","2017-06-20 09:38:19",NULL
641,2,"Pedro Bay","pedro-bay",44,59.869141,-154.119440,"2016-04-12 16:47:07","2017-06-20 09:38:19",NULL
642,2,"Perryville","perryville",113,55.924665,-159.157480,"2016-04-12 16:47:07","2016-08-30 10:17:40",NULL
643,2,"Pilot Point","pilot-point",80,57.490637,-157.333441,"2016-04-12 16:47:07","2017-06-20 09:38:19",NULL
644,2,"Pilot Station","pilot-station",568,61.942059,-162.881907,"2016-04-12 16:47:07","2017-06-20 09:38:19",NULL
645,2,"Platinum","platinum",61,58.997989,-161.716364,"2016-04-12 16:47:07","2017-06-20 09:38:19",NULL
646,2,"Big Lake","big-lake",3703,61.565102,-150.133573,"2016-04-12 16:47:07","2017-06-20 09:38:19",NULL
647,2,"Port Alsworth","port-alsworth",159,60.207756,-154.312148,"2016-04-12 16:47:07","2016-08-30 10:17:41",NULL
648,2,"Quinhagak","quinhagak",669,59.743995,-161.890858,"2016-04-12 16:47:07","2017-06-20 09:38:19",NULL
649,2,"Red Devil","red-devil",25,61.910271,-157.611769,"2016-04-12 16:47:07","2017-06-20 09:38:19",NULL
650,2,"Russian Mission","russian-mission",329,61.816983,-161.168349,"2016-04-12 16:47:07","2017-06-20 09:38:20",NULL
651,2,"Saint Marys","saint-marys",616,62.071122,-163.258686,"2016-04-12 16:47:07","2017-06-20 09:38:20",NULL
652,2,"Saint Michael","saint-michael",401,63.469215,-162.119015,"2016-04-12 16:47:07","2017-06-20 09:38:20",NULL
653,2,"Saint Paul Island","saint-paul-island",479,57.189235,-170.290316,"2016-04-12 16:47:07","2017-06-26 13:17:33",NULL
654,2,"Sand Point","sand-point",978,55.269306,-160.674896,"2016-04-12 16:47:07","2017-06-20 09:38:20",NULL
655,2,"Scammon Bay","scammon-bay",480,61.788428,-165.988759,"2016-04-12 16:47:07","2017-06-20 09:38:20",NULL
656,2,"Seldovia","seldovia",414,59.403956,-151.592551,"2016-04-12 16:47:07","2017-06-20 09:38:20",NULL
657,2,"Seward","seward",4932,60.169609,-149.236189,"2016-04-12 16:47:07","2017-06-20 09:38:20",NULL
658,2,"Shageluk","shageluk",83,62.645987,-159.531326,"2016-04-12 16:47:07","2017-06-20 09:38:20",NULL
659,2,"Nunam Iqua","nunam-iqua",189,62.478336,-165.095642,"2016-04-12 16:47:07","2017-06-20 09:38:20",NULL
660,2,"Skwentna","skwentna",65,61.694515,-152.199499,"2016-04-12 16:47:07","2017-06-20 09:38:20",NULL
661,2,"Sleetmute","sleetmute",86,61.705617,-157.145181,"2016-04-12 16:47:07","2016-08-30 10:17:41",NULL
662,2,"Soldotna","soldotna",14191,60.387353,-151.048157,"2016-04-12 16:47:07","2017-06-20 09:38:20",NULL
663,2,"South Naknek","south-naknek",79,58.707382,-157.040898,"2016-04-12 16:47:07","2016-08-30 10:17:41",NULL
664,2,"Stebbins","stebbins",556,63.485765,-162.247903,"2016-04-12 16:47:07","2017-06-20 09:38:20",NULL
665,2,"Sterling","sterling",3704,60.563231,-150.717810,"2016-04-12 16:47:07","2017-06-20 09:38:20",NULL
666,2,"Takotna","takotna",0,62.975140,-156.124940,"2016-04-12 16:47:07","2017-06-20 09:38:20",NULL
667,2,"Talkeetna","talkeetna",1546,62.435103,-149.816989,"2016-04-12 16:47:08","2017-06-20 09:38:20",NULL
668,2,"Tatitlek","tatitlek",88,60.892437,-146.663769,"2016-04-12 16:47:08","2016-08-30 10:17:41",NULL
669,2,"Togiak","togiak",891,59.330361,-160.059643,"2016-04-12 16:47:08","2017-06-20 09:38:20",NULL
670,2,"Tuluksak","tuluksak",373,61.101630,-160.940616,"2016-04-12 16:47:08","2016-08-30 10:17:41",NULL
671,2,"Tuntutuliak","tuntutuliak",408,60.361690,-162.683668,"2016-04-12 16:47:08","2016-08-30 10:17:41",NULL
672,2,"Tununak","tununak",325,60.612479,-165.093855,"2016-04-12 16:47:08","2017-06-20 09:38:20",NULL
673,2,"Tyonek","tyonek",373,60.597720,-152.740882,"2016-04-12 16:47:08","2017-06-20 09:38:20",NULL
674,2,"Trapper Creek","trapper-creek",524,62.530197,-150.891660,"2016-04-12 16:47:08","2017-06-20 09:38:20",NULL
675,2,"Unalakleet","unalakleet",688,64.057323,-160.377918,"2016-04-12 16:47:08","2017-06-20 09:38:20",NULL
676,2,"Unalaska","unalaska",4376,53.883486,-166.494689,"2016-04-12 16:47:08","2017-06-20 09:38:20",NULL
677,2,"Valdez","valdez",4005,61.173730,-147.133526,"2016-04-12 16:47:08","2017-06-20 09:38:20",NULL
678,2,"Willow","willow",2759,61.985855,-149.464753,"2016-04-12 16:47:08","2017-06-20 09:38:20",NULL
679,2,"Yakutat","yakutat",662,59.512681,-139.433949,"2016-04-12 16:47:08","2017-06-20 09:38:20",NULL
680,2,"Nightmute","nightmute",280,60.488575,-164.843297,"2016-04-12 16:47:08","2017-06-20 09:38:20",NULL
681,2,"Nikolai","nikolai",95,62.875289,-153.448624,"2016-04-12 16:47:08","2017-06-20 09:38:20",NULL
682,2,"Whittier","whittier",248,60.817804,-148.049934,"2016-04-12 16:47:08","2017-06-20 09:38:20",NULL
683,2,"Houston","houston",1512,61.606071,-149.795528,"2016-04-12 16:47:08","2017-06-20 09:38:20",NULL
684,2,"Fairbanks","fairbanks",63999,64.832242,-147.372481,"2016-04-12 16:47:08","2017-06-20 09:38:20",NULL
685,2,"Eielson Air Force Base","eielson-air-force-base",2647,64.677004,-147.038251,"2016-04-12 16:47:08","2017-06-20 09:38:20",NULL
686,2,"Clear","clear",24,64.348000,-149.188995,"2016-04-12 16:47:08","2017-06-20 09:38:20",NULL
687,2,"North Pole","north-pole",22544,64.768873,-147.353439,"2016-04-12 16:47:08","2017-06-20 09:38:20",NULL
688,2,"Salcha","salcha",1385,64.426865,-146.740789,"2016-04-12 16:47:08","2017-06-20 09:38:20",NULL
689,2,"Two Rivers","two-rivers",0,64.870000,-147.040000,"2016-04-12 16:47:08","2017-06-20 09:38:20",NULL
690,2,"Allakaket","allakaket",208,66.561673,-152.774495,"2016-04-12 16:47:08","2017-06-20 09:38:20",NULL
691,2,"Anaktuvuk Pass","anaktuvuk-pass",324,68.153176,-151.704073,"2016-04-12 16:47:08","2017-06-20 09:38:20",NULL
692,2,"Arctic Village","arctic-village",152,68.094363,-145.634789,"2016-04-12 16:47:08","2016-08-30 10:17:41",NULL
693,2,"Barrow","barrow",4213,71.271549,-156.751450,"2016-04-12 16:47:08","2017-06-20 09:38:20",NULL
694,2,"Beaver","beaver",84,66.382315,-147.320994,"2016-04-12 16:47:08","2016-08-30 10:17:41",NULL
695,2,"Ester","ester",0,64.845630,-148.018733,"2016-04-12 16:47:08","2017-06-20 09:38:20",NULL
696,2,"Bettles","bettles",30,67.183918,-152.282361,"2016-04-12 16:47:08","2017-06-20 09:38:20",NULL
697,2,"Buckland","buckland",416,65.976532,-161.136993,"2016-04-12 16:47:08","2017-06-20 09:38:20",NULL
698,2,"Cantwell","cantwell",231,63.058427,-149.366740,"2016-04-12 16:47:09","2017-06-20 09:38:20",NULL
699,2,"Central","central",144,65.549999,-145.412351,"2016-04-12 16:47:09","2017-06-20 09:38:20",NULL
700,2,"Fort Greely","fort-greely",0,63.915759,-145.618133,"2016-04-12 16:47:09","2017-06-20 09:38:20",NULL
701,2,"Chicken","chicken",10,64.054912,-142.265166,"2016-04-12 16:47:09","2017-06-20 09:38:20",NULL
702,2,"Circle","circle",104,65.744124,-144.172354,"2016-04-12 16:47:09","2017-06-20 09:38:20",NULL
703,2,"Prudhoe Bay","prudhoe-bay",845,70.253324,-148.349594,"2016-04-12 16:47:09","2017-06-20 09:38:20",NULL
704,2,"Deering","deering",122,66.082129,-162.757187,"2016-04-12 16:47:09","2017-06-20 09:38:20",NULL
705,2,"Delta Junction","delta-junction",5011,63.836790,-145.129826,"2016-04-12 16:47:09","2017-06-20 09:38:20",NULL
706,2,"Eagle","eagle",187,65.519890,-142.474384,"2016-04-12 16:47:09","2017-06-20 09:38:20",NULL
707,2,"Elim","elim",330,64.881746,-162.549389,"2016-04-12 16:47:09","2017-06-20 09:38:20",NULL
708,2,"Fort Yukon","fort-yukon",585,67.894588,-144.220609,"2016-04-12 16:47:09","2017-06-20 09:38:20",NULL
709,2,"Galena","galena",470,64.733562,-156.888302,"2016-04-12 16:47:09","2017-06-20 09:38:20",NULL
710,2,"Gambell","gambell",681,63.756924,-171.723435,"2016-04-12 16:47:09","2017-06-20 09:38:20",NULL
711,2,"Healy","healy",1069,63.747780,-150.306495,"2016-04-12 16:47:09","2017-06-20 09:38:20",NULL
712,2,"Anderson","anderson",226,64.304911,-149.189254,"2016-04-12 16:47:09","2017-06-20 09:38:20",NULL
713,2,"Hughes","hughes",78,66.038436,-154.245486,"2016-04-12 16:47:09","2017-06-20 09:38:20",NULL
714,2,"Huslia","huslia",277,65.687847,-158.583463,"2016-04-12 16:47:09","2017-06-20 09:38:20",NULL
715,2,"Kaktovik","kaktovik",239,70.112724,-143.633962,"2016-04-12 16:47:09","2017-06-20 09:38:20",NULL
716,2,"Kaltag","kaltag",190,64.331897,-158.778550,"2016-04-12 16:47:09","2017-06-20 09:38:20",NULL
717,2,"Kiana","kiana",363,66.986165,-160.427838,"2016-04-12 16:47:09","2017-06-20 09:38:20",NULL
718,2,"Kivalina","kivalina",374,67.729327,-164.543022,"2016-04-12 16:47:09","2017-06-20 09:38:20",NULL
719,2,"Kobuk","kobuk",151,66.919631,-156.861072,"2016-04-12 16:47:09","2017-06-20 09:38:20",NULL
720,2,"Kotzebue","kotzebue",3553,67.015773,-161.854784,"2016-04-12 16:47:09","2017-06-20 09:38:20",NULL
721,2,"Koyuk","koyuk",332,64.942491,-161.127581,"2016-04-12 16:47:09","2017-06-20 09:38:21",NULL
722,2,"Koyukuk","koyukuk",96,64.908360,-157.700445,"2016-04-12 16:47:09","2017-06-20 09:38:21",NULL
723,2,"Denali National Park","denali-national-park",217,63.794864,-148.489598,"2016-04-12 16:47:09","2017-06-26 12:48:45",NULL
724,2,"Manley Hot Springs","manley-hot-springs",119,64.523426,-151.968420,"2016-04-12 16:47:09","2017-06-20 09:38:21",NULL
725,2,"Lake Minchumina","lake-minchumina",17,63.781257,-152.623909,"2016-04-12 16:47:09","2017-06-20 09:38:21",NULL
726,2,"Minto","minto",210,65.149832,-149.374388,"2016-04-12 16:47:09","2017-06-20 09:38:21",NULL
727,2,"Point Lay","point-lay",189,69.726757,-162.819093,"2016-04-12 16:47:09","2017-06-20 09:38:21",NULL
728,2,"Nenana","nenana",785,64.042326,-147.982243,"2016-04-12 16:47:09","2017-06-20 09:38:21",NULL
729,2,"Noatak","noatak",514,67.609301,-163.016386,"2016-04-12 16:47:09","2016-08-30 10:17:42",NULL
730,2,"Nome","nome",4038,64.799772,-164.859596,"2016-04-12 16:47:09","2017-06-20 09:38:21",NULL
731,2,"Noorvik","noorvik",668,66.827116,-161.037788,"2016-04-12 16:47:09","2017-06-20 09:38:21",NULL
732,2,"Northway","northway",290,63.375867,-141.349248,"2016-04-12 16:47:09","2017-06-20 09:38:21",NULL
733,2,"Nulato","nulato",264,64.725347,-158.131569,"2016-04-12 16:47:09","2017-06-20 09:38:21",NULL
734,2,"Point Hope","point-hope",678,68.706698,-164.854792,"2016-04-12 16:47:09","2017-06-20 09:38:21",NULL
735,2,"Rampart","rampart",24,65.503511,-150.153614,"2016-04-12 16:47:09","2016-08-30 10:17:42",NULL
736,2,"Ruby","ruby",175,65.082220,-154.866687,"2016-04-12 16:47:09","2017-06-20 09:38:21",NULL
737,2,"Savoonga","savoonga",671,63.686280,-170.490325,"2016-04-12 16:47:09","2017-06-20 09:38:21",NULL
738,2,"Selawik","selawik",841,66.716734,-159.494901,"2016-04-12 16:47:10","2017-06-20 09:38:21",NULL
739,2,"Shaktoolik","shaktoolik",251,64.362416,-161.202520,"2016-04-12 16:47:10","2017-06-20 09:38:21",NULL
740,2,"Shishmaref","shishmaref",567,66.074083,-164.934756,"2016-04-12 16:47:10","2017-06-20 09:38:21",NULL
741,2,"Shungnak","shungnak",262,66.889282,-157.158571,"2016-04-12 16:47:10","2017-06-20 09:38:21",NULL
742,2,"Stevens Village","stevens-village",78,66.008914,-149.081963,"2016-04-12 16:47:10","2017-06-20 09:38:21",NULL
743,2,"Tanacross","tanacross",124,63.379747,-143.391465,"2016-04-12 16:47:10","2017-06-20 09:38:21",NULL
744,2,"Tanana","tanana",246,65.189655,-152.121450,"2016-04-12 16:47:10","2017-06-20 09:38:21",NULL
745,2,"Teller","teller",254,65.168103,-166.385494,"2016-04-12 16:47:10","2017-06-20 09:38:21",NULL
746,2,"Tok","tok",1535,63.271659,-142.985417,"2016-04-12 16:47:10","2017-06-20 09:38:21",NULL
747,2,"Venetie","venetie",167,67.518813,-145.839176,"2016-04-12 16:47:10","2017-06-20 09:38:21",NULL
748,2,"Wainwright","wainwright",556,70.634472,-159.961725,"2016-04-12 16:47:10","2017-06-20 09:38:21",NULL
749,2,"Wales","wales",145,65.669900,-168.077633,"2016-04-12 16:47:10","2017-06-20 09:38:21",NULL
750,2,"White Mountain","white-mountain",190,64.681558,-163.406995,"2016-04-12 16:47:10","2017-06-20 09:38:21",NULL
751,2,"Brevig Mission","brevig-mission",388,65.342363,-166.502488,"2016-04-12 16:47:10","2017-06-20 09:38:21",NULL
752,2,"Ambler","ambler",259,67.285816,-155.836408,"2016-04-12 16:47:10","2017-06-20 09:38:21",NULL
753,2,"Chalkyitsik","chalkyitsik",69,66.644544,-143.775944,"2016-04-12 16:47:10","2017-06-20 09:38:21",NULL
754,2,"Nuiqsut","nuiqsut",402,70.011696,-152.038315,"2016-04-12 16:47:10","2017-06-20 09:38:21",NULL
755,2,"Atqasuk","atqasuk",237,70.503849,-156.602674,"2016-04-12 16:47:10","2017-06-20 09:38:21",NULL
756,2,"Juneau","juneau",31275,58.286834,-134.466846,"2016-04-12 16:47:10","2017-06-20 09:38:21",NULL
757,2,"Angoon","angoon",479,57.453321,-134.239115,"2016-04-12 16:47:10","2017-06-20 09:38:21",NULL
758,2,"Elfin Cove","elfin-cove",120,58.146028,-135.775593,"2016-04-12 16:47:10","2017-06-20 09:38:21",NULL
759,2,"Gustavus","gustavus",442,58.659708,-136.573678,"2016-04-12 16:47:10","2017-06-20 09:38:21",NULL
760,2,"Haines","haines",2602,59.368031,-136.070496,"2016-04-12 16:47:10","2017-06-20 09:38:21",NULL
761,2,"Hoonah","hoonah",777,58.090235,-135.419462,"2016-04-12 16:47:10","2017-06-20 09:38:21",NULL
762,2,"Kake","kake",561,56.821980,-134.127430,"2016-04-12 16:47:10","2017-06-20 09:38:21",NULL
763,2,"Pelican","pelican",104,58.025680,-136.223912,"2016-04-12 16:47:10","2017-06-20 09:38:21",NULL
764,2,"Petersburg","petersburg",3202,56.919587,-133.000319,"2016-04-12 16:47:10","2017-06-20 09:38:21",NULL
765,2,"Sitka","sitka",8880,56.997371,-135.000000,"2016-04-12 16:47:10","2017-06-20 09:38:21",NULL
766,2,"Port Alexander","port-alexander",52,56.256217,-134.647029,"2016-04-12 16:47:10","2016-08-30 10:17:42",NULL
767,2,"Skagway","skagway",968,59.549440,-135.269027,"2016-04-12 16:47:10","2017-06-20 09:38:21",NULL
768,2,"Tenakee Springs","tenakee-springs",133,57.859570,-135.192362,"2016-04-12 16:47:10","2017-06-20 09:38:21",NULL
769,2,"Ketchikan","ketchikan",13508,55.822279,-131.912546,"2016-04-12 16:47:10","2017-06-20 09:38:21",NULL
770,2,"Meyers Chuck","meyers-chuck",31,55.731841,-132.094400,"2016-04-12 16:47:11","2017-06-20 09:38:21",NULL
771,2,"Coffman Cove","coffman-cove",231,55.933102,-132.748240,"2016-04-12 16:47:11","2017-06-20 09:38:21",NULL
772,2,"Thorne Bay","thorne-bay",531,55.659431,-132.522832,"2016-04-12 16:47:11","2017-06-20 09:38:21",NULL
773,2,"Craig","craig",1920,55.436316,-132.597401,"2016-04-12 16:47:11","2017-06-20 09:38:21",NULL
774,2,"Hydaburg","hydaburg",384,55.307156,-133.084392,"2016-04-12 16:47:11","2017-06-20 09:38:21",NULL
775,2,"Hyder","hyder",87,55.978854,-130.034726,"2016-04-12 16:47:11","2016-08-30 10:17:42",NULL
776,2,"Klawock","klawock",819,55.558354,-133.011454,"2016-04-12 16:47:11","2017-06-20 09:38:21",NULL
777,2,"Metlakatla","metlakatla",1460,55.120929,-131.485512,"2016-04-12 16:47:11","2017-06-20 09:38:21",NULL
778,2,"Point Baker","point-baker",94,56.243594,-133.404520,"2016-04-12 16:47:11","2017-06-20 09:38:21",NULL
779,2,"Ward Cove","ward-cove",0,55.410419,-131.722180,"2016-04-12 16:47:11","2016-08-30 10:17:42",NULL
780,2,"Wrangell","wrangell",2338,56.324986,-132.048210,"2016-04-12 16:47:11","2017-06-20 09:38:21",NULL
781,3,"Phoenix","phoenix",1312922,33.505289,-112.075037,"2016-04-12 16:47:11","2017-06-20 09:38:21",NULL
782,3,"New River","new-river",7708,33.924407,-112.119176,"2016-04-12 16:47:12","2017-06-20 09:38:21",NULL
783,3,"Apache Junction","apache-junction",49387,33.439468,-111.492137,"2016-04-12 16:47:12","2017-06-20 09:38:21",NULL
784,3,"Gold Canyon","gold-canyon",12246,33.365877,-111.332197,"2016-04-12 16:47:12","2017-06-20 09:38:21",NULL
785,3,"Bapchule","bapchule",2178,33.141948,-111.916478,"2016-04-12 16:47:12","2017-06-20 09:38:21",NULL
786,3,"Casa Grande","casa-grande",62569,32.889352,-111.739569,"2016-04-12 16:47:12","2017-06-20 09:38:21",NULL
787,3,"Arizona City","arizona-city",10677,32.752170,-111.672035,"2016-04-12 16:47:12","2017-06-20 09:38:21",NULL
788,3,"Chandler Heights","chandler-heights",0,33.209749,-111.687964,"2016-04-12 16:47:12","2016-08-30 10:17:43",NULL
789,3,"Coolidge","coolidge",14823,32.971382,-111.499133,"2016-04-12 16:47:12","2017-06-20 09:38:21",NULL
790,3,"Eloy","eloy",18017,32.627356,-111.618376,"2016-04-12 16:47:12","2017-06-20 09:38:21",NULL
791,3,"Florence","florence",33556,32.919193,-111.189115,"2016-04-12 16:47:12","2017-06-20 09:38:21",NULL
792,3,"Hayden","hayden",630,33.013985,-110.801648,"2016-04-12 16:47:12","2017-06-20 09:38:21",NULL
793,3,"Kearny","kearny",2329,33.090217,-110.950664,"2016-04-12 16:47:12","2017-06-20 09:38:21",NULL
794,3,"Maricopa","maricopa",51612,32.999978,-112.047636,"2016-04-12 16:47:12","2017-06-20 09:38:21",NULL
795,3,"San Tan Valley","san-tan-valley",71726,33.224463,-111.493172,"2016-04-12 16:47:12","2017-06-20 09:38:21",NULL
796,3,"Picacho","picacho",515,32.648632,-111.439513,"2016-04-12 16:47:12","2017-06-20 09:38:21",NULL
797,3,"Queen Creek","queen-creek",48870,33.202836,-111.642224,"2016-04-12 16:47:12","2017-06-20 09:38:21",NULL
798,3,"Red Rock","red-rock",2106,32.575128,-111.367969,"2016-04-12 16:47:12","2017-06-20 09:38:21",NULL
799,3,"Sacaton","sacaton",4543,33.099790,-111.737618,"2016-04-12 16:47:12","2017-06-20 09:38:21",NULL
800,3,"Stanfield","stanfield",1368,32.936270,-111.928402,"2016-04-12 16:47:12","2017-06-20 09:38:21",NULL
801,3,"Superior","superior",2872,33.284181,-111.129500,"2016-04-12 16:47:12","2017-06-20 09:38:21",NULL
802,3,"Tortilla Flat","tortilla-flat",0,33.526148,-111.390002,"2016-04-12 16:47:12","2016-08-30 10:17:43",NULL
803,3,"Valley Farms","valley-farms",0,32.988096,-111.448836,"2016-04-12 16:47:12","2016-08-30 10:17:43",NULL
804,3,"Winkelman","winkelman",2120,32.881402,-110.664568,"2016-04-12 16:47:12","2017-06-20 09:38:21",NULL
805,3,"Mesa","mesa",478404,33.415823,-111.748424,"2016-04-12 16:47:12","2017-06-20 09:38:21",NULL
806,3,"Chandler","chandler",255641,33.282797,-111.856927,"2016-04-12 16:47:13","2017-06-20 09:38:21",NULL
807,3,"Gilbert","gilbert",211167,33.318139,-111.746880,"2016-04-12 16:47:13","2017-06-20 09:38:21",NULL
808,3,"Scottsdale","scottsdale",268597,33.582224,-111.885584,"2016-04-12 16:47:13","2017-06-20 09:38:21",NULL
809,3,"Paradise Valley","paradise-valley",17047,33.538847,-111.964173,"2016-04-12 16:47:13","2017-06-20 09:38:22",NULL
810,3,"Rio Verde","rio-verde",2111,33.843677,-111.522982,"2016-04-12 16:47:13","2017-06-20 09:38:22",NULL
811,3,"Fort McDowell","fort-mcdowell",1249,33.655850,-111.618376,"2016-04-12 16:47:13","2017-06-20 09:38:22",NULL
812,3,"Fountain Hills","fountain-hills",22684,33.612941,-111.735022,"2016-04-12 16:47:13","2017-06-20 09:38:22",NULL
813,3,"Tempe","tempe",167311,33.396055,-111.934375,"2016-04-12 16:47:13","2017-06-20 09:38:22",NULL
814,3,"Glendale","glendale",280389,33.588130,-112.200446,"2016-04-12 16:47:13","2017-06-20 09:38:22",NULL
815,3,"Aguila","aguila",1197,33.940224,-113.239445,"2016-04-12 16:47:14","2017-06-20 09:38:22",NULL
816,3,"Ajo","ajo",4435,32.331803,-112.524509,"2016-04-12 16:47:14","2017-06-20 09:38:22",NULL
817,3,"Arlington","arlington",752,33.167137,-112.858217,"2016-04-12 16:47:14","2017-06-20 09:38:22",NULL
818,3,"Avondale","avondale",74817,33.447148,-112.308195,"2016-04-12 16:47:14","2017-06-20 09:38:22",NULL
819,3,"Black Canyon City","black-canyon-city",2886,34.095174,-111.999944,"2016-04-12 16:47:14","2017-06-20 09:38:22",NULL
820,3,"Bouse","bouse",1212,33.902450,-114.048801,"2016-04-12 16:47:14","2017-06-20 09:38:22",NULL
821,3,"Buckeye","buckeye",63868,33.412779,-112.631782,"2016-04-12 16:47:14","2017-06-20 09:38:22",NULL
822,3,"Cave Creek","cave-creek",26960,33.852620,-111.939201,"2016-04-12 16:47:14","2017-06-20 09:38:22",NULL
823,3,"Cibola","cibola",259,33.210070,-114.643043,"2016-04-12 16:47:14","2017-06-20 09:38:22",NULL
824,3,"Congress","congress",2146,34.165436,-112.953541,"2016-04-12 16:47:14","2017-06-20 09:38:22",NULL
825,3,"Dateland","dateland",790,32.989038,-113.334722,"2016-04-12 16:47:14","2017-06-20 09:38:22",NULL
826,3,"Ehrenberg","ehrenberg",1482,33.535005,-114.500504,"2016-04-12 16:47:14","2017-06-20 09:38:22",NULL
827,3,"El Mirage","el-mirage",31787,33.599493,-112.321855,"2016-04-12 16:47:14","2017-06-20 09:38:22",NULL
828,3,"Gadsden","gadsden",700,32.538921,-114.791463,"2016-04-12 16:47:14","2017-06-20 09:38:22",NULL
829,3,"Gila Bend","gila-bend",2793,32.978219,-112.953541,"2016-04-12 16:47:14","2017-06-20 09:38:22",NULL
830,3,"Goodyear","goodyear",67037,33.417866,-112.398868,"2016-04-12 16:47:14","2017-06-20 09:38:22",NULL
831,3,"Litchfield Park","litchfield-park",26262,33.509907,-112.345699,"2016-04-12 16:47:14","2017-06-20 09:38:22",NULL
832,3,"Lukeville","lukeville",39,31.887233,-112.813530,"2016-04-12 16:47:14","2017-06-20 09:38:22",NULL
833,3,"Morristown","morristown",1578,34.022968,-112.381462,"2016-04-12 16:47:14","2017-06-20 09:38:22",NULL
834,3,"Palo Verde","palo-verde",196,33.333455,-112.685417,"2016-04-12 16:47:14","2017-06-20 09:38:22",NULL
835,3,"Parker","parker",9147,34.186311,-114.096371,"2016-04-12 16:47:14","2017-06-20 09:38:22",NULL
836,3,"Peoria","peoria",158093,33.635343,-112.247551,"2016-04-12 16:47:14","2017-06-20 09:38:22",NULL
837,3,"Quartzsite","quartzsite",4423,33.666298,-114.205748,"2016-04-12 16:47:14","2017-06-20 09:38:22",NULL
838,3,"Roll","roll",716,32.773540,-113.882269,"2016-04-12 16:47:14","2017-06-20 09:38:22",NULL
839,3,"Salome","salome",2786,33.675829,-113.715681,"2016-04-12 16:47:14","2017-06-20 09:38:22",NULL
840,3,"San Luis","san-luis",25517,32.490834,-114.767720,"2016-04-12 16:47:14","2017-06-20 09:38:22",NULL
841,3,"Somerton","somerton",21214,32.565318,-114.690544,"2016-04-12 16:47:14","2017-06-20 09:38:22",NULL
842,3,"Sun City","sun-city",45145,33.640940,-112.284859,"2016-04-12 16:47:14","2017-06-20 09:38:22",NULL
843,3,"Tacna","tacna",461,32.686693,-113.864423,"2016-04-12 16:47:14","2017-06-20 09:38:22",NULL
844,3,"Tolleson","tolleson",31011,33.416956,-112.274168,"2016-04-12 16:47:14","2017-06-20 09:38:22",NULL
845,3,"Tonopah","tonopah",6645,33.418402,-113.096506,"2016-04-12 16:47:14","2017-06-20 09:38:22",NULL
846,3,"Waddell","waddell",8745,33.555614,-112.441067,"2016-04-12 16:47:14","2017-06-20 09:38:22",NULL
847,3,"Wellton","wellton",4539,32.647033,-114.191495,"2016-04-12 16:47:14","2017-06-20 09:38:22",NULL
848,3,"Wenden","wenden",761,33.967270,-113.525232,"2016-04-12 16:47:14","2017-06-20 09:38:22",NULL
849,3,"Wickenburg","wickenburg",8621,33.950453,-112.794109,"2016-04-12 16:47:14","2017-06-20 09:38:22",NULL
850,3,"Wikieup","wikieup",222,34.690093,-113.477610,"2016-04-12 16:47:14","2017-06-20 09:38:22",NULL
851,3,"Wittmann","wittmann",6700,33.739702,-112.643703,"2016-04-12 16:47:15","2016-08-30 10:17:44",NULL
852,3,"Yarnell","yarnell",663,34.219218,-112.786717,"2016-04-12 16:47:15","2017-06-20 09:38:22",NULL
853,3,"Youngtown","youngtown",6156,33.583707,-112.306953,"2016-04-12 16:47:15","2017-06-20 09:38:22",NULL
854,3,"Yuma","yuma",141891,32.796868,-114.466956,"2016-04-12 16:47:15","2017-06-20 09:38:22",NULL
855,3,"Poston","poston",419,33.859148,-114.357913,"2016-04-12 16:47:15","2017-06-20 09:38:22",NULL
856,3,"Surprise","surprise",119941,33.651635,-112.405304,"2016-04-12 16:47:15","2017-06-20 09:38:22",NULL
857,3,"Sun City West","sun-city-west",27703,33.658543,-112.353258,"2016-04-12 16:47:15","2017-06-20 09:38:22",NULL
858,3,"Carefree","carefree",3051,33.823298,-111.914988,"2016-04-12 16:47:15","2017-06-20 09:38:22",NULL
859,3,"Globe","globe",13345,33.471412,-110.774964,"2016-04-12 16:47:15","2017-06-20 09:38:22",NULL
860,3,"Bylas","bylas",2069,33.118974,-110.283222,"2016-04-12 16:47:15","2017-06-20 09:38:22",NULL
861,3,"Central","central",623,32.882609,-109.788932,"2016-04-12 16:47:15","2017-06-20 09:38:22",NULL
862,3,"Claypool","claypool",0,33.410364,-110.843177,"2016-04-12 16:47:15","2017-06-20 09:38:22",NULL
863,3,"Clifton","clifton",2943,33.382626,-109.473507,"2016-04-12 16:47:15","2017-06-20 09:38:22",NULL
864,3,"Duncan","duncan",2588,32.699399,-109.140438,"2016-04-12 16:47:15","2017-06-20 09:38:22",NULL
865,3,"Eden","eden",21,32.999687,-109.931822,"2016-04-12 16:47:15","2017-06-20 09:38:22",NULL
866,3,"Fort Thomas","fort-thomas",408,33.166973,-109.997324,"2016-04-12 16:47:15","2017-06-20 09:38:22",NULL
867,3,"Miami","miami",4520,33.373563,-110.926820,"2016-04-12 16:47:15","2017-06-20 09:38:22",NULL
868,3,"Morenci","morenci",2874,33.026677,-109.402115,"2016-04-12 16:47:15","2017-06-20 09:38:22",NULL
869,3,"Payson","payson",21877,34.225235,-111.326786,"2016-04-12 16:47:15","2017-06-20 09:38:22",NULL
870,3,"Peridot","peridot",3196,33.307425,-110.187911,"2016-04-12 16:47:15","2017-06-20 09:38:22",NULL
871,3,"Pima","pima",3822,32.907737,-109.997324,"2016-04-12 16:47:15","2017-06-20 09:38:22",NULL
872,3,"Pine","pine",2949,34.353118,-111.522982,"2016-04-12 16:47:15","2017-06-20 09:38:22",NULL
873,3,"Roosevelt","roosevelt",583,33.570930,-111.022196,"2016-04-12 16:47:15","2017-06-20 09:38:22",NULL
874,3,"Safford","safford",19677,32.787612,-109.569240,"2016-04-12 16:47:15","2017-06-20 09:38:22",NULL
875,3,"San Carlos","san-carlos",4790,33.602411,-110.473876,"2016-04-12 16:47:15","2017-06-20 09:38:22",NULL
876,3,"Solomon","solomon",405,32.735771,-109.592514,"2016-04-12 16:47:15","2017-06-20 09:38:22",NULL
877,3,"Thatcher","thatcher",6218,32.822066,-109.794885,"2016-04-12 16:47:15","2017-06-20 09:38:22",NULL
878,3,"Tonto Basin","tonto-basin",1501,33.810280,-111.236808,"2016-04-12 16:47:15","2017-06-20 09:38:22",NULL
879,3,"Young","young",778,33.946632,-110.950664,"2016-04-12 16:47:15","2017-06-20 09:38:22",NULL
880,3,"Arivaca","arivaca",698,31.577956,-111.308350,"2016-04-12 16:47:15","2017-06-20 09:38:22",NULL
881,3,"Benson","benson",9464,32.150096,-110.378544,"2016-04-12 16:47:15","2017-06-20 09:38:22",NULL
882,3,"Bisbee","bisbee",7155,31.442160,-109.902051,"2016-04-12 16:47:15","2017-06-20 09:38:22",NULL
883,3,"Bowie","bowie",597,32.305689,-109.425911,"2016-04-12 16:47:15","2017-06-20 09:38:22",NULL
884,3,"Cochise","cochise",1184,32.054524,-109.902051,"2016-04-12 16:47:15","2017-06-20 09:38:22",NULL
885,3,"Douglas","douglas",21230,31.436251,-109.411416,"2016-04-12 16:47:15","2017-06-20 09:38:22",NULL
886,3,"Dragoon","dragoon",392,32.084795,-110.116435,"2016-04-12 16:47:15","2017-06-20 09:38:22",NULL
887,3,"Elfrida","elfrida",1333,31.807885,-109.806792,"2016-04-12 16:47:16","2017-06-20 09:38:22",NULL
888,3,"Elgin","elgin",965,31.672597,-110.497711,"2016-04-12 16:47:16","2017-06-20 09:38:22",NULL
889,3,"Sierra Vista","sierra-vista",55607,31.516669,-110.138745,"2016-04-12 16:47:16","2017-06-20 09:38:22",NULL
890,3,"Green Valley","green-valley",28220,31.827396,-110.998353,"2016-04-12 16:47:16","2017-06-20 09:38:22",NULL
891,3,"Hereford","hereford",9413,31.395761,-110.187911,"2016-04-12 16:47:16","2017-06-20 09:38:23",NULL
892,3,"Huachuca City","huachuca-city",5566,31.714279,-110.378544,"2016-04-12 16:47:16","2017-06-20 09:38:23",NULL
893,3,"Mc Neal","mc-neal",1277,31.534698,-109.735357,"2016-04-12 16:47:16","2017-06-20 09:38:23",NULL
894,3,"Mammoth","mammoth",1725,32.699292,-110.593055,"2016-04-12 16:47:16","2017-06-20 09:38:23",NULL
895,3,"Mount Lemmon","mount-lemmon",50,32.415136,-110.736086,"2016-04-12 16:47:16","2017-06-20 09:38:23",NULL
896,3,"Naco","naco",897,31.335688,-109.945964,"2016-04-12 16:47:16","2017-06-20 09:38:23",NULL
897,3,"Nogales","nogales",23054,31.424331,-111.045859,"2016-04-12 16:47:16","2017-06-20 09:38:23",NULL
898,3,"Oracle","oracle",4073,32.762161,-110.855292,"2016-04-12 16:47:16","2017-06-20 09:38:23",NULL
899,3,"Patagonia","patagonia",1426,31.491779,-110.664568,"2016-04-12 16:47:16","2017-06-20 09:38:23",NULL
900,3,"Pirtleville","pirtleville",1021,31.361700,-109.567967,"2016-04-12 16:47:16","2017-06-20 09:38:23",NULL
901,3,"Pomerene","pomerene",968,31.998723,-110.285966,"2016-04-12 16:47:16","2017-06-20 09:38:23",NULL
902,3,"Sahuarita","sahuarita",23568,31.975471,-111.022196,"2016-04-12 16:47:16","2017-06-20 09:38:23",NULL
903,3,"Saint David","saint-david",2819,31.902531,-110.164085,"2016-04-12 16:47:16","2017-06-20 09:38:23",NULL
904,3,"San Manuel","san-manuel",3630,32.577618,-110.545382,"2016-04-12 16:47:16","2017-06-20 09:38:23",NULL
905,3,"San Simon","san-simon",835,32.001120,-109.140438,"2016-04-12 16:47:16","2017-06-20 09:38:23",NULL
906,3,"Sasabe","sasabe",54,31.605656,-111.522982,"2016-04-12 16:47:16","2017-06-20 09:38:23",NULL
907,3,"Sells","sells",6490,32.057702,-112.143022,"2016-04-12 16:47:16","2017-06-20 09:38:23",NULL
908,3,"Sonoita","sonoita",1268,31.727822,-110.688407,"2016-04-12 16:47:16","2017-06-20 09:38:23",NULL
909,3,"Tombstone","tombstone",1973,31.656022,-110.068788,"2016-04-12 16:47:16","2017-06-20 09:38:23",NULL
910,3,"Topawa","topawa",0,31.813950,-111.826245,"2016-04-12 16:47:16","2016-08-30 10:17:44",NULL
911,3,"Tumacacori-Carmen","tumacacori-carmen",441,31.574449,-111.060944,"2016-04-12 16:47:16","2017-06-20 09:38:23",NULL
912,3,"Vail","vail",21753,32.014921,-110.664568,"2016-04-12 16:47:16","2017-06-20 09:38:23",NULL
913,3,"Willcox","willcox",9810,32.336463,-109.937483,"2016-04-12 16:47:16","2017-06-20 09:38:23",NULL
914,3,"Amado","amado",2231,31.689845,-111.165269,"2016-04-12 16:47:16","2017-06-20 09:38:23",NULL
915,3,"Tubac","tubac",1311,31.643733,-110.926820,"2016-04-12 16:47:16","2017-06-20 09:38:23",NULL
916,3,"Rio Rico","rio-rico",19080,31.530650,-110.950664,"2016-04-12 16:47:16","2017-06-20 09:38:23",NULL
917,3,"Marana","marana",22873,32.432064,-111.219123,"2016-04-12 16:47:16","2017-06-20 09:38:23",NULL
918,3,"Rillito","rillito",97,32.418665,-111.156718,"2016-04-12 16:47:16","2017-06-20 09:38:23",NULL
919,3,"Tucson","tucson",880383,32.232168,-110.954972,"2016-04-12 16:47:17","2017-06-20 09:38:23",NULL
920,3,"Catalina","catalina",0,32.500000,-110.920000,"2016-04-12 16:47:17","2017-06-20 09:38:23",NULL
921,3,"Show Low","show-low",17207,34.300773,-110.061306,"2016-04-12 16:47:17","2017-06-20 09:38:23",NULL
922,3,"Cibecue","cibecue",1800,34.113909,-110.235565,"2016-04-12 16:47:17","2017-06-20 09:38:23",NULL
923,3,"Alpine","alpine",464,33.849472,-109.116657,"2016-04-12 16:47:17","2017-06-20 09:38:23",NULL
924,3,"Clay Springs","clay-springs",621,34.315163,-110.366628,"2016-04-12 16:47:17","2017-06-20 09:38:23",NULL
925,3,"Concho","concho",2683,34.551628,-109.663931,"2016-04-12 16:47:17","2017-06-20 09:38:23",NULL
926,3,"Eagar","eagar",4893,34.081275,-109.342631,"2016-04-12 16:47:17","2017-06-20 09:38:23",NULL
927,3,"Fort Apache","fort-apache",265,33.777611,-109.979460,"2016-04-12 16:47:17","2017-06-20 09:38:23",NULL
928,3,"Greer","greer",176,34.010203,-109.449708,"2016-04-12 16:47:17","2017-06-20 09:38:23",NULL
929,3,"McNary","mcnary",1086,34.074091,-109.711547,"2016-04-12 16:47:17","2017-06-20 09:38:23",NULL
930,3,"Nutrioso","nutrioso",364,33.963078,-109.211790,"2016-04-12 16:47:17","2017-06-20 09:38:23",NULL
931,3,"Pinedale","pinedale",574,34.246401,-110.271307,"2016-04-12 16:47:17","2017-06-20 09:38:23",NULL
932,3,"Saint Johns","saint-johns",4293,34.614548,-109.283153,"2016-04-12 16:47:17","2017-06-20 09:38:23",NULL
933,3,"Snowflake","snowflake",7638,34.538029,-109.997324,"2016-04-12 16:47:17","2017-06-20 09:38:23",NULL
934,3,"Springerville","springerville",2366,34.222406,-109.330735,"2016-04-12 16:47:18","2017-06-20 09:38:23",NULL
935,3,"Taylor","taylor",4400,34.439430,-110.170041,"2016-04-12 16:47:18","2017-06-20 09:38:23",NULL
936,3,"Vernon","vernon",1443,34.270450,-109.687739,"2016-04-12 16:47:18","2017-06-20 09:38:23",NULL
937,3,"Whiteriver","whiteriver",9941,33.854982,-109.997324,"2016-04-12 16:47:18","2017-06-20 09:38:23",NULL
938,3,"Woodruff","woodruff",80,34.780214,-110.009235,"2016-04-12 16:47:18","2017-06-20 09:38:23",NULL
939,3,"Flagstaff","flagstaff",84499,35.250722,-111.554861,"2016-04-12 16:47:18","2017-06-20 09:38:23",NULL
940,3,"Bellemont","bellemont",385,35.227948,-111.827049,"2016-04-12 16:47:18","2017-06-20 09:38:23",NULL
941,3,"Gray Mountain","gray-mountain",62,35.713926,-111.546830,"2016-04-12 16:47:18","2017-06-20 09:38:23",NULL
942,3,"Munds Park","munds-park",667,34.867513,-111.594527,"2016-04-12 16:47:18","2017-06-20 09:38:23",NULL
943,3,"Parks","parks",759,35.395303,-111.964173,"2016-04-12 16:47:18","2017-06-20 09:38:23",NULL
944,3,"Cameron","cameron",1941,35.932403,-111.379893,"2016-04-12 16:47:18","2017-06-20 09:38:23",NULL
945,3,"Colorado City","colorado-city",6085,36.961916,-113.013113,"2016-04-12 16:47:18","2017-06-20 09:38:23",NULL
946,3,"Fredonia","fredonia",2210,36.941333,-112.762883,"2016-04-12 16:47:18","2017-06-20 09:38:23",NULL
947,3,"Grand Canyon","grand-canyon",2627,36.004315,-112.095330,"2016-04-12 16:47:18","2017-06-21 10:14:41",NULL
948,3,"Happy Jack","happy-jack",703,34.743729,-111.407897,"2016-04-12 16:47:18","2017-06-20 09:38:23",NULL
949,3,"Holbrook","holbrook",5676,34.929584,-110.187911,"2016-04-12 16:47:18","2017-06-20 09:38:23",NULL
950,3,"Petrified Forest National Park","petrified-forest-national-park",47,35.019915,-109.782979,"2016-04-12 16:47:18","2017-06-20 09:38:23",NULL
951,3,"Sun Valley","sun-valley",320,34.945812,-110.062833,"2016-04-12 16:47:18","2017-06-20 09:38:23",NULL
952,3,"Hotevilla-Bacavi","hotevilla-bacavi",1374,35.987778,-110.736086,"2016-04-12 16:47:18","2017-06-20 09:38:23",NULL
953,3,"Indian Wells","indian-wells",1856,35.368121,-110.092611,"2016-04-12 16:47:18","2017-06-20 09:38:23",NULL
954,3,"Joseph City","joseph-city",1509,35.082124,-110.283222,"2016-04-12 16:47:18","2017-06-20 09:38:23",NULL
955,3,"Kayenta","kayenta",7844,36.637911,-110.235565,"2016-04-12 16:47:18","2017-06-20 09:38:23",NULL
956,3,"Keams Canyon","keams-canyon",2271,35.788131,-110.092611,"2016-04-12 16:47:18","2017-06-20 09:38:23",NULL
957,3,"Leupp","leupp",1802,35.569456,-110.855292,"2016-04-12 16:47:18","2017-06-20 09:38:23",NULL
958,3,"Marble Canyon","marble-canyon",388,36.687501,-111.761466,"2016-04-12 16:47:18","2017-06-20 09:38:23",NULL
959,3,"Mormon Lake","mormon-lake",77,34.936071,-111.451437,"2016-04-12 16:47:18","2017-06-20 09:38:23",NULL
960,3,"Kykotsmovi Village","kykotsmovi-village",1467,36.113777,-110.497711,"2016-04-12 16:47:18","2017-06-20 09:38:23",NULL
961,3,"Page","page",10283,36.759800,-111.379893,"2016-04-12 16:47:18","2017-06-20 09:38:23",NULL
962,3,"Second Mesa","second-mesa",1798,35.813206,-110.545382,"2016-04-12 16:47:18","2017-06-20 09:38:23",NULL
963,3,"Tonalea","tonalea",4251,37.030294,-110.807608,"2016-04-12 16:47:18","2017-06-20 09:38:23",NULL
964,3,"Tuba City","tuba-city",11354,36.018101,-111.141423,"2016-04-12 16:47:18","2017-06-20 09:38:23",NULL
